[{"locId":"L20183601","locName":"Abberley Hills","countryCode":"GB","subnational1Code":"GB-ENG","subnational2Code":"GB-ENG-WOR","lat":52.2996936,"lng":-2.3534667,"latestObsDt":"2025-02-02 12:59","numSpeciesAllTime":31},{"locId":"L1015321","locName":"Abberton Reservoir","countryCode":"GB","subnational1Code":"GB-ENG","subnational2Code":"GB-ENG-ESS","lat":51.8254661,"lng":0.8630276,"latestObsDt":"2025-02-16 14:50","numSpeciesAllTime":234},{"locId":"L14637092","locName":"Abberton Reservoir--Billets Farm and Hide","countryCode":"GB","subnational1Code":"GB-ENG","subnational2Code":"GB-ENG-ESS","lat":51.8153733,"lng":0.8494449,"latestObsDt":"2025-02-15 15:30","numSpeciesAllTime":130},{"locId":"L5400797","locName":"Abberton Reservoir--Layer Breton Causeway","countryCode":"GB","subnational1Code":"GB-ENG","subnational2Code":"GB-ENG-ESS","lat":51.8149029,"lng":0.827837,"latestObsDt":"2025-02-15 14:30","numSpeciesAllTime":165},{"locId":"L2547041","locName":"Abberton Reservoir--Layer-de-la-Haye Causeway","countryCode":"GB","subnational1Code":"GB-ENG","subnational2Code":"GB-ENG-ESS","lat":51.81975,"lng":0.84783,"latestObsDt":"2025-02-15 14:00","numSpeciesAllTime":186},{"locId":"L5808197","locName":"Abberton Reservoir--St Andrews Church Viewpoint","countryCode":"GB","subnational1Code":"GB-ENG","subnational2Code":"GB-ENG-ESS","lat":51.836726,"lng":0.89859,"latestObsDt":"2025-02-15 08:41","numSpeciesAllTime":134},{"locId":"L10578415","locName":"Abberton Reservoir--Visitor Centre","countryCode":"GB","subnational1Code":"GB-ENG","subnational2Code":"GB-ENG-ESS","lat":51.824665,"lng":0.8491659,"latestObsDt":"2025-02-15 14:15","numSpeciesAllTime":161},{"locId":"L25803873","locName":"Abberton Reservoir--West End (General)","countryCode":"GB","subnational1Code":"GB-ENG","subnational2Code":"GB-ENG-ESS","lat":51.8165081,"lng":0.8389891,"latestObsDt":"2025-02-12 11:13","numSpeciesAllTime":137},{"locId":"L5816051","locName":"Abberton Reservoir--Wigborough Bay Viewpoint","countryCode":"GB","subnational1Code":"GB-ENG","subnational2Code":"GB-ENG-ESS","lat":51.811957,"lng":0.847233,"latestObsDt":"2025-02-15 14:00","numSpeciesAllTime":122},{"locId":"L12105009","locName":"Abbey Hill Park","countryCode":"GB","subnational1Code":"GB-ENG","subnational2Code":"GB-ENG-LND","lat":51.4346218,"lng":0.1136139,"latestObsDt":"2025-01-23 15:00","numSpeciesAllTime":13},{"locId":"L13144691","locName":"Abbey Mills (Morpeth)","countryCode":"GB","subnational1Code":"GB-ENG","subnational2Code":"GB-ENG-NBL","lat":55.1657807,"lng":-1.7140075,"latestObsDt":"2025-01-18 12:22","numSpeciesAllTime":68},{"locId":"L11417824","locName":"Abbey Park (Great Missenden)","countryCode":"GB","subnational1Code":"GB-ENG","subnational2Code":"GB-ENG-BKM","lat":51.6984074,"lng":-0.7002154,"latestObsDt":"2025-02-14 07:27","numSpeciesAllTime":68},{"locId":"L8047947","locName":"Abbey Park (Leicester)","countryCode":"GB","subnational1Code":"GB-ENG","subnational2Code":"GB-ENG-LEC","lat":52.6463921,"lng":-1.1318512,"latestObsDt":"2025-02-16 14:13","numSpeciesAllTime":61},{"locId":"L5762550","locName":"Abbots Pool LNR","countryCode":"GB","subnational1Code":"GB-ENG","subnational2Code":"GB-ENG-SOM","lat":51.456173,"lng":-2.6691198,"latestObsDt":"2025-02-05 11:05","numSpeciesAllTime":49},{"locId":"L3086042","locName":"Abbotsbury Swannery","countryCode":"GB","subnational1Code":"GB-ENG","subnational2Code":"GB-ENG-DOR","lat":50.6542494,"lng":-2.6018286,"latestObsDt":"2025-02-12 08:00","numSpeciesAllTime":216},{"locId":"L1290319","locName":"Aber (Caernarfonshire)","countryCode":"GB","subnational1Code":"GB-WLS","subnational2Code":"GB-WLS-GWN","lat":53.2391946,"lng":-4.0244122,"latestObsDt":"2025-02-01 15:31","numSpeciesAllTime":137},{"locId":"L5418341","locName":"Aber Falls (Rhaedr Fawr)","countryCode":"GB","subnational1Code":"GB-WLS","subnational2Code":"GB-WLS-GWN","lat":53.2111023,"lng":-3.996183,"latestObsDt":"2025-02-13 15:09","numSpeciesAllTime":79},{"locId":"L27790120","locName":"Abercromby Square","countryCode":"GB","subnational1Code":"GB-ENG","subnational2Code":"GB-ENG-KWL","lat":53.402793,"lng":-2.9649889,"latestObsDt":"2025-02-14 16:19","numSpeciesAllTime":27},{"locId":"L19911657","locName":"Aberffraw Coast and Dunes","countryCode":"GB","subnational1Code":"GB-WLS","subnational2Code":"GB-WLS-AGY","lat":53.1839573,"lng":-4.4633641,"latestObsDt":"2025-01-21 16:00","numSpeciesAllTime":66},{"locId":"L5483948","locName":"Aberglasney Gardens","countryCode":"GB","subnational1Code":"GB-WLS","subnational2Code":"GB-WLS-CMN","lat":51.8790005,"lng":-4.0633294,"latestObsDt":"2025-02-14 10:10","numSpeciesAllTime":45},{"locId":"L919596","locName":"Aberlady Bay LNR","countryCode":"GB","subnational1Code":"GB-SCT","subnational2Code":"GB-SCT-ELN","lat":56.0148887,"lng":-2.850244,"latestObsDt":"2025-02-05 17:44","numSpeciesAllTime":247},{"locId":"L933562","locName":"Abernethy Forest","countryCode":"GB","subnational1Code":"GB-SCT","subnational2Code":"GB-SCT-HLD","lat":57.2409787,"lng":-3.6726952,"latestObsDt":"2025-02-02 10:20","numSpeciesAllTime":127},{"locId":"L5858783","locName":"Abernethy Forest--Forest Lodge","countryCode":"GB","subnational1Code":"GB-SCT","subnational2Code":"GB-SCT-HLD","lat":57.2246126,"lng":-3.6280686,"latestObsDt":"2025-02-12 14:36","numSpeciesAllTime":97},{"locId":"L7486642","locName":"Abernethy Forest--Track South from Dell Lodge","countryCode":"GB","subnational1Code":"GB-SCT","subnational2Code":"GB-SCT-HLD","lat":57.2570447,"lng":-3.6396503,"latestObsDt":"2025-02-04 15:09","numSpeciesAllTime":82},{"locId":"L6165224","locName":"Abernethy Forest--Twin Loch Trail","countryCode":"GB","subnational1Code":"GB-SCT","subnational2Code":"GB-SCT-HLD","lat":57.238819,"lng":-3.7121129,"latestObsDt":"2025-02-15 11:42","numSpeciesAllTime":104},{"locId":"L2386811","locName":"Aberystwyth New Promenade","countryCode":"GB","subnational1Code":"GB-WLS","subnational2Code":"GB-WLS-CGN","lat":52.4155085,"lng":-4.0880406,"latestObsDt":"2025-02-13 14:39","numSpeciesAllTime":118},{"locId":"L7756025","locName":"Abington Park","countryCode":"GB","subnational1Code":"GB-ENG","subnational2Code":"GB-ENG-NTH","lat":52.2469861,"lng":-0.8626854,"latestObsDt":"2025-02-07 13:10","numSpeciesAllTime":73},{"locId":"L7148667","locName":"Abney Park Cemetery LNR","countryCode":"GB","subnational1Code":"GB-ENG","subnational2Code":"GB-ENG-LND","lat":51.5644041,"lng":-0.0770437,"latestObsDt":"2025-02-11 09:00","numSpeciesAllTime":49},{"locId":"L2487048","locName":"Acle Straight--Scaregap Farm","countryCode":"GB","subnational1Code":"GB-ENG","subnational2Code":"GB-ENG-NFK","lat":52.6228,"lng":1.67614,"latestObsDt":"2025-02-08 10:48","numSpeciesAllTime":95},{"locId":"L8635300","locName":"Acre Nook Sand Quarry","countryCode":"GB","subnational1Code":"GB-ENG","subnational2Code":"GB-ENG-CHS","lat":53.2489812,"lng":-2.2722381,"latestObsDt":"2025-02-08 10:46","numSpeciesAllTime":151},{"locId":"L8579401","locName":"Acton Green Common","countryCode":"GB","subnational1Code":"GB-ENG","subnational2Code":"GB-ENG-LND","lat":51.4954154,"lng":-0.2634102,"latestObsDt":"2025-02-09 07:47","numSpeciesAllTime":37},{"locId":"L36079092","locName":"Acton Park (Acton, Wrexham)","countryCode":"GB","subnational1Code":"GB-WLS","subnational2Code":"GB-WLS-WRX","lat":53.06036,"lng":-2.9768322,"latestObsDt":"2025-02-16 09:09","numSpeciesAllTime":55},{"locId":"L12105033","locName":"Addington Hills","countryCode":"GB","subnational1Code":"GB-ENG","subnational2Code":"GB-ENG-LND","lat":51.3620451,"lng":-0.0578194,"latestObsDt":"2025-01-30 10:40","numSpeciesAllTime":39},{"locId":"L12105036","locName":"Addlestone (LBC District)","countryCode":"GB","subnational1Code":"GB-ENG","subnational2Code":"GB-ENG-SRY","lat":51.3710997,"lng":-0.4885038,"latestObsDt":"2025-02-13 16:01","numSpeciesAllTime":37},{"locId":"L12106701","locName":"Addlestone Mill Pond","countryCode":"GB","subnational1Code":"GB-ENG","subnational2Code":"GB-ENG-SRY","lat":51.3660893,"lng":-0.4784482,"latestObsDt":"2025-02-13 08:31","numSpeciesAllTime":26},{"locId":"L4463991","locName":"Adel Dam","countryCode":"GB","subnational1Code":"GB-ENG","subnational2Code":"GB-ENG-WKF","lat":53.8669533,"lng":-1.5857005,"latestObsDt":"2025-02-08 10:01","numSpeciesAllTime":89},{"locId":"L4143838","locName":"Adlington Golf Centre Driving Range Area","countryCode":"GB","subnational1Code":"GB-ENG","subnational2Code":"GB-ENG-CHS","lat":53.3351448,"lng":-2.141873,"latestObsDt":"2025-02-03 08:27","numSpeciesAllTime":118},{"locId":"L3710789","locName":"Admiral's Walk Lake","countryCode":"GB","subnational1Code":"GB-ENG","subnational2Code":"GB-ENG-HRT","lat":51.7548777,"lng":-0.0061798,"latestObsDt":"2025-01-19 12:53","numSpeciesAllTime":78},{"locId":"L10149803","locName":"Adswood Tip","countryCode":"GB","subnational1Code":"GB-ENG","subnational2Code":"GB-ENG-MAN","lat":53.3802544,"lng":-2.1766594,"latestObsDt":"2025-01-25 08:53","numSpeciesAllTime":72},{"locId":"L10517308","locName":"Adur Estuary RSPB Reserve","countryCode":"GB","subnational1Code":"GB-ENG","subnational2Code":"GB-ENG-WSX","lat":50.8309291,"lng":-0.2800032,"latestObsDt":"2025-02-07 11:40","numSpeciesAllTime":118},{"locId":"L6623715","locName":"Adwick Washlands RSPB Reserve","countryCode":"GB","subnational1Code":"GB-ENG","subnational2Code":"GB-ENG-BNS","lat":53.518778,"lng":-1.296301,"latestObsDt":"2025-02-16 13:54","numSpeciesAllTime":156},{"locId":"L28847432","locName":"Afon Cegidog / River Cegidog","countryCode":"GB","subnational1Code":"GB-WLS","subnational2Code":"GB-WLS-FLN","lat":53.1081325,"lng":-3.0875173,"latestObsDt":"2025-02-04 15:40","numSpeciesAllTime":24},{"locId":"L1152259","locName":"Afon Dysynni Estuary","countryCode":"GB","subnational1Code":"GB-WLS","subnational2Code":"GB-WLS-GWN","lat":52.6092733,"lng":-4.1265786,"latestObsDt":"2025-02-15 11:48","numSpeciesAllTime":122},{"locId":"L12276940","locName":"Afon Ogwr / Ogmore River--Ogmore Castle to mouth","countryCode":"GB","subnational1Code":"GB-WLS","subnational2Code":"GB-WLS-VGL","lat":51.4736628,"lng":-3.6261559,"latestObsDt":"2025-02-11 08:40","numSpeciesAllTime":105},{"locId":"L11764141","locName":"Ainsdale Beach","countryCode":"GB","subnational1Code":"GB-ENG","subnational2Code":"GB-ENG-KWL","lat":53.608792,"lng":-3.065618,"latestObsDt":"2025-02-03 09:30","numSpeciesAllTime":112},{"locId":"L5698214","locName":"Aira Force","countryCode":"GB","subnational1Code":"GB-ENG","subnational2Code":"GB-ENG-CMA","lat":54.5741015,"lng":-2.9291439,"latestObsDt":"2025-02-08 15:57","numSpeciesAllTime":90},{"locId":"L18334890","locName":"Albert Park (Middlesborough)","countryCode":"GB","subnational1Code":"GB-ENG","subnational2Code":"GB-ENG-NYK","lat":54.5649335,"lng":-1.2357471,"latestObsDt":"2025-02-06 13:24","numSpeciesAllTime":70},{"locId":"L1318024","locName":"Albert Village Lake","countryCode":"GB","subnational1Code":"GB-ENG","subnational2Code":"GB-ENG-LEC","lat":52.7533632,"lng":-1.5499313,"latestObsDt":"2025-02-12 11:15","numSpeciesAllTime":100},{"locId":"L5214832","locName":"Aldeburgh Seafront","countryCode":"GB","subnational1Code":"GB-ENG","subnational2Code":"GB-ENG-SFK","lat":52.1473067,"lng":1.6015968,"latestObsDt":"2025-01-19 00:00","numSpeciesAllTime":130},{"locId":"L3576449","locName":"Aldeburgh Town Marsh","countryCode":"GB","subnational1Code":"GB-ENG","subnational2Code":"GB-ENG-SFK","lat":52.1499638,"lng":1.5865588,"latestObsDt":"2025-02-15 10:53","numSpeciesAllTime":197},{"locId":"L5966884","locName":"Alderman Canal LNR","countryCode":"GB","subnational1Code":"GB-ENG","subnational2Code":"GB-ENG-SFK","lat":52.056506,"lng":1.1412477,"latestObsDt":"2025-02-13 12:15","numSpeciesAllTime":55},{"locId":"L16490604","locName":"Aldford Brook at Lower Lane","countryCode":"GB","subnational1Code":"GB-ENG","subnational2Code":"GB-ENG-CHS","lat":53.120489,"lng":-2.8628209,"latestObsDt":"2025-01-18 13:53","numSpeciesAllTime":78},{"locId":"L4143973","locName":"Aldford to Crook of Dee","countryCode":"GB","subnational1Code":"GB-ENG","subnational2Code":"GB-ENG-CHS","lat":53.1257144,"lng":-2.8789211,"latestObsDt":"2025-01-18 14:49","numSpeciesAllTime":94},{"locId":"L29789583","locName":"Alexandra & Ainsworth Estate","countryCode":"GB","subnational1Code":"GB-ENG","subnational2Code":"GB-ENG-LND","lat":51.5394438,"lng":-0.1837974,"latestObsDt":"2025-01-22 08:17","numSpeciesAllTime":16},{"locId":"L13480471","locName":"Alexandra Park (Bath)","countryCode":"GB","subnational1Code":"GB-ENG","subnational2Code":"GB-ENG-SOM","lat":51.3735851,"lng":-2.3593397,"latestObsDt":"2025-02-12 13:00","numSpeciesAllTime":41},{"locId":"L9289476","locName":"Alexandra Park (Glasgow)","countryCode":"GB","subnational1Code":"GB-SCT","subnational2Code":"GB-SCT-GLG","lat":55.8656795,"lng":-4.2024422,"latestObsDt":"2025-02-15 11:00","numSpeciesAllTime":57},{"locId":"L3409810","locName":"Alexandra Park (Hastings)","countryCode":"GB","subnational1Code":"GB-ENG","subnational2Code":"GB-ENG-ESX","lat":50.8656832,"lng":0.5679309,"latestObsDt":"2025-02-15 19:27","numSpeciesAllTime":80},{"locId":"L939855","locName":"Alexandra Park (London)","countryCode":"GB","subnational1Code":"GB-ENG","subnational2Code":"GB-ENG-LND","lat":51.5933888,"lng":-0.1266003,"latestObsDt":"2025-02-16 11:43","numSpeciesAllTime":156},{"locId":"L11540157","locName":"Alexandra Park (Stockport)","countryCode":"GB","subnational1Code":"GB-ENG","subnational2Code":"GB-ENG-MAN","lat":53.3986877,"lng":-2.1716455,"latestObsDt":"2025-02-03 11:58","numSpeciesAllTime":33},{"locId":"L29783923","locName":"Algarkirk (Village)","countryCode":"GB","subnational1Code":"GB-ENG","subnational2Code":"GB-ENG-LIN","lat":52.8993719,"lng":-0.0831957,"latestObsDt":"2025-01-23 11:11","numSpeciesAllTime":15},{"locId":"L4886759","locName":"Alice Holt Forest","countryCode":"GB","subnational1Code":"GB-ENG","subnational2Code":"GB-ENG-HAM","lat":51.1772875,"lng":-0.8495092,"latestObsDt":"2025-02-06 07:25","numSpeciesAllTime":71},{"locId":"L1914241","locName":"Alkborough Flats","countryCode":"GB","subnational1Code":"GB-ENG","subnational2Code":"GB-ENG-LIN","lat":53.6919294,"lng":-0.6774616,"latestObsDt":"2025-02-15 09:00","numSpeciesAllTime":214},{"locId":"L16722480","locName":"Alkrington Woods LNR","countryCode":"GB","subnational1Code":"GB-ENG","subnational2Code":"GB-ENG-MAN","lat":53.5407674,"lng":-2.2089713,"latestObsDt":"2025-02-16 10:40","numSpeciesAllTime":79},{"locId":"L29695700","locName":"All Saints Park (Horseley Fields)","countryCode":"GB","subnational1Code":"GB-ENG","subnational2Code":"GB-ENG-SAW","lat":52.5790125,"lng":-2.11697,"latestObsDt":"2025-02-13 11:08","numSpeciesAllTime":51},{"locId":"L2402585","locName":"Allestree Park","countryCode":"GB","subnational1Code":"GB-ENG","subnational2Code":"GB-ENG-DBY","lat":52.9605498,"lng":-1.4859438,"latestObsDt":"2025-02-07 08:45","numSpeciesAllTime":76},{"locId":"L23118873","locName":"Allonby (Village)","countryCode":"GB","subnational1Code":"GB-ENG","subnational2Code":"GB-ENG-CMA","lat":54.7754812,"lng":-3.4297636,"latestObsDt":"2025-01-23 14:09","numSpeciesAllTime":50},{"locId":"L948891","locName":"Almond River Mouth and Parkway","countryCode":"GB","subnational1Code":"GB-SCT","subnational2Code":"GB-SCT-EDH","lat":55.9807617,"lng":-3.2996321,"latestObsDt":"2025-02-10 12:53","numSpeciesAllTime":152},{"locId":"L29183697","locName":"Alney Island","countryCode":"GB","subnational1Code":"GB-ENG","subnational2Code":"GB-ENG-GLS","lat":51.8858891,"lng":-2.261164,"latestObsDt":"2025-01-18 11:00","numSpeciesAllTime":35},{"locId":"L6065225","locName":"Alston Reservoirs and Wetland NR","countryCode":"GB","subnational1Code":"GB-ENG","subnational2Code":"GB-ENG-LAN","lat":53.8192504,"lng":-2.6009703,"latestObsDt":"2025-02-16 16:20","numSpeciesAllTime":173},{"locId":"L21219005","locName":"Alton Flood Meadows","countryCode":"GB","subnational1Code":"GB-ENG","subnational2Code":"GB-ENG-HAM","lat":51.1508107,"lng":-0.9815377,"latestObsDt":"2025-01-24 08:12","numSpeciesAllTime":35},{"locId":"L1027196","locName":"Alton Water","countryCode":"GB","subnational1Code":"GB-ENG","subnational2Code":"GB-ENG-SFK","lat":51.9821313,"lng":1.1200905,"latestObsDt":"2025-02-16 11:00","numSpeciesAllTime":170},{"locId":"L7381154","locName":"Altrincham Sewage Works","countryCode":"GB","subnational1Code":"GB-ENG","subnational2Code":"GB-ENG-MAN","lat":53.4123457,"lng":-2.3731327,"latestObsDt":"2025-02-01 14:25","numSpeciesAllTime":131},{"locId":"L2680588","locName":"Alturlie / Allt Rolaidh","countryCode":"GB","subnational1Code":"GB-SCT","subnational2Code":"GB-SCT-HLD","lat":57.5054665,"lng":-4.1475534,"latestObsDt":"2025-02-05 14:15","numSpeciesAllTime":157},{"locId":"L8575618","locName":"Alvaston Park","countryCode":"GB","subnational1Code":"GB-ENG","subnational2Code":"GB-ENG-DBY","lat":52.9054005,"lng":-1.4391904,"latestObsDt":"2025-02-08 12:16","numSpeciesAllTime":77},{"locId":"L19821810","locName":"Alvecote Pools--Mill Pool","countryCode":"GB","subnational1Code":"GB-ENG","subnational2Code":"GB-ENG-WAR","lat":52.638564,"lng":-1.6274669,"latestObsDt":"2025-02-16 14:24","numSpeciesAllTime":108},{"locId":"L10998454","locName":"Alverstone Mead LNR","countryCode":"GB","subnational1Code":"GB-ENG","subnational2Code":"GB-ENG-IOW","lat":50.6652113,"lng":-1.1814782,"latestObsDt":"2025-02-07 13:01","numSpeciesAllTime":86},{"locId":"L37888557","locName":"Alyn Waters Country Park","countryCode":"GB","subnational1Code":"GB-WLS","subnational2Code":"GB-WLS-WRX","lat":53.0851046,"lng":-3.0172522,"latestObsDt":"2025-02-14 09:40","numSpeciesAllTime":37},{"locId":"L1344207","locName":"Amberley Wildbrooks RSPB and SWT NR","countryCode":"GB","subnational1Code":"GB-ENG","subnational2Code":"GB-ENG-WSX","lat":50.9218006,"lng":-0.5360556,"latestObsDt":"2025-02-08 14:00","numSpeciesAllTime":165},{"locId":"L8916132","locName":"Amble Harbour","countryCode":"GB","subnational1Code":"GB-ENG","subnational2Code":"GB-ENG-NBL","lat":55.336785,"lng":-1.577928,"latestObsDt":"2025-02-14 14:58","numSpeciesAllTime":120},{"locId":"L6357171","locName":"Amble Links LNR","countryCode":"GB","subnational1Code":"GB-ENG","subnational2Code":"GB-ENG-NBL","lat":55.3261822,"lng":-1.5582991,"latestObsDt":"2025-02-08 09:00","numSpeciesAllTime":136},{"locId":"L7843755","locName":"Ambleside (Town)","countryCode":"GB","subnational1Code":"GB-ENG","subnational2Code":"GB-ENG-CMA","lat":54.4328633,"lng":-2.9628633,"latestObsDt":"2025-02-11 14:52","numSpeciesAllTime":123},{"locId":"L1267548","locName":"Amwell HMWT NR","countryCode":"GB","subnational1Code":"GB-ENG","subnational2Code":"GB-ENG-HRT","lat":51.7986775,"lng":-0.0051499,"latestObsDt":"2025-02-16 11:13","numSpeciesAllTime":229},{"locId":"L13195951","locName":"Amwell HMWT NR--Great Hardmead Lake","countryCode":"GB","subnational1Code":"GB-ENG","subnational2Code":"GB-ENG-HRT","lat":51.7960273,"lng":-0.0026435,"latestObsDt":"2025-02-16 15:13","numSpeciesAllTime":147},{"locId":"L3129126","locName":"Anagach Woods","countryCode":"GB","subnational1Code":"GB-SCT","subnational2Code":"GB-SCT-HLD","lat":57.3285646,"lng":-3.5861134,"latestObsDt":"2025-02-07 13:47","numSpeciesAllTime":97},{"locId":"L8426173","locName":"Ancoats Green","countryCode":"GB","subnational1Code":"GB-ENG","subnational2Code":"GB-ENG-MAN","lat":53.4871,"lng":-2.223857,"latestObsDt":"2025-02-06 08:39","numSpeciesAllTime":34},{"locId":"L9175456","locName":"Anderby Marsh LWT Reserve","countryCode":"GB","subnational1Code":"GB-ENG","subnational2Code":"GB-ENG-LIN","lat":53.2532011,"lng":0.3251796,"latestObsDt":"2025-02-09 11:14","numSpeciesAllTime":136},{"locId":"L9603298","locName":"Anderton Nature Park","countryCode":"GB","subnational1Code":"GB-ENG","subnational2Code":"GB-ENG-CHS","lat":53.2714294,"lng":-2.5225237,"latestObsDt":"2025-02-03 10:05","numSpeciesAllTime":82},{"locId":"L34831272","locName":"Angerton Lake","countryCode":"GB","subnational1Code":"GB-ENG","subnational2Code":"GB-ENG-NBL","lat":55.1745774,"lng":-1.8944282,"latestObsDt":"2025-02-08 13:15","numSpeciesAllTime":32},{"locId":"L14011099","locName":"Angle Park GP","countryCode":"GB","subnational1Code":"GB-SCT","subnational2Code":"GB-SCT-FIF","lat":56.2888087,"lng":-3.1419687,"latestObsDt":"2025-02-16 10:42","numSpeciesAllTime":108},{"locId":"L1833802","locName":"Anglers Country Park","countryCode":"GB","subnational1Code":"GB-ENG","subnational2Code":"GB-ENG-WKF","lat":53.6390119,"lng":-1.4279239,"latestObsDt":"2025-02-07 08:09","numSpeciesAllTime":170},{"locId":"L3600102","locName":"Anglesey Abbey","countryCode":"GB","subnational1Code":"GB-ENG","subnational2Code":"GB-ENG-CAM","lat":52.237513,"lng":0.2398968,"latestObsDt":"2025-01-25 15:33","numSpeciesAllTime":78},{"locId":"L4874666","locName":"Anglian Water Birdwatching Centre","countryCode":"GB","subnational1Code":"GB-ENG","subnational2Code":"GB-ENG-RUT","lat":52.6552051,"lng":-0.7010758,"latestObsDt":"2025-02-01 12:02","numSpeciesAllTime":211},{"locId":"L6155268","locName":"Annandale Water","countryCode":"GB","subnational1Code":"GB-SCT","subnational2Code":"GB-SCT-DGY","lat":55.2209946,"lng":-3.4097314,"latestObsDt":"2025-02-16 12:24","numSpeciesAllTime":70},{"locId":"L6127365","locName":"Annstead Point","countryCode":"GB","subnational1Code":"GB-ENG","subnational2Code":"GB-ENG-NBL","lat":55.5764827,"lng":-1.6368449,"latestObsDt":"2025-01-20 08:07","numSpeciesAllTime":119},{"locId":"L6001764","locName":"Anstruther Harbour and Shore","countryCode":"GB","subnational1Code":"GB-SCT","subnational2Code":"GB-SCT-FIF","lat":56.2216425,"lng":-2.6972981,"latestObsDt":"2025-02-14 12:07","numSpeciesAllTime":101},{"locId":"L16328451","locName":"Anthorn","countryCode":"GB","subnational1Code":"GB-ENG","subnational2Code":"GB-ENG-CMA","lat":54.9099683,"lng":-3.2619051,"latestObsDt":"2025-02-14 14:20","numSpeciesAllTime":75},{"locId":"L7022283","locName":"Anton Lakes LNR","countryCode":"GB","subnational1Code":"GB-ENG","subnational2Code":"GB-ENG-HAM","lat":51.2188734,"lng":-1.4887118,"latestObsDt":"2025-01-25 15:09","numSpeciesAllTime":81},{"locId":"L3303036","locName":"Apex Leisure Park","countryCode":"GB","subnational1Code":"GB-ENG","subnational2Code":"GB-ENG-SOM","lat":51.2251718,"lng":-2.9897919,"latestObsDt":"2025-02-14 07:32","numSpeciesAllTime":143},{"locId":"L1252309","locName":"Appleford Gravel Pit","countryCode":"GB","subnational1Code":"GB-ENG","subnational2Code":"GB-ENG-OXF","lat":51.6404302,"lng":-1.2579131,"latestObsDt":"2025-02-06 14:46","numSpeciesAllTime":139},{"locId":"L18788635","locName":"Appleton","countryCode":"GB","subnational1Code":"GB-ENG","subnational2Code":"GB-ENG-NFK","lat":52.8153718,"lng":0.5266072,"latestObsDt":"2025-01-22 00:00","numSpeciesAllTime":8},{"locId":"L1488861","locName":"Arbroath Cliffs","countryCode":"GB","subnational1Code":"GB-SCT","subnational2Code":"GB-SCT-ANS","lat":56.5608838,"lng":-2.556628,"latestObsDt":"2025-01-24 12:59","numSpeciesAllTime":96},{"locId":"L32287911","locName":"Arclid Wood","countryCode":"GB","subnational1Code":"GB-ENG","subnational2Code":"GB-ENG-CHS","lat":53.1645789,"lng":-2.3193447,"latestObsDt":"2025-02-09 14:56","numSpeciesAllTime":36},{"locId":"L12915346","locName":"Ardalanish Bay","countryCode":"GB","subnational1Code":"GB-SCT","subnational2Code":"GB-SCT-AGB","lat":56.2883974,"lng":-6.2447579,"latestObsDt":"2025-02-14 12:02","numSpeciesAllTime":59},{"locId":"L2696503","locName":"Ardersier / Aird nan Saor","countryCode":"GB","subnational1Code":"GB-SCT","subnational2Code":"GB-SCT-HLD","lat":57.5758836,"lng":-4.0338707,"latestObsDt":"2025-01-29 12:25","numSpeciesAllTime":131},{"locId":"L16191821","locName":"Ardglass","countryCode":"GB","subnational1Code":"GB-NIR","subnational2Code":"GB-NIR-DOW","lat":54.262122,"lng":-5.6082463,"latestObsDt":"2025-01-25 14:30","numSpeciesAllTime":46},{"locId":"L17024525","locName":"Ardington","countryCode":"GB","subnational1Code":"GB-ENG","subnational2Code":"GB-ENG-OXF","lat":51.5924725,"lng":-1.3781151,"latestObsDt":"2025-02-01 15:08","numSpeciesAllTime":76},{"locId":"L19369504","locName":"Ardivachar / Àird a' Mhachair Cemetery","countryCode":"GB","subnational1Code":"GB-SCT","subnational2Code":"GB-SCT-ELS","lat":57.3827888,"lng":-7.4254713,"latestObsDt":"2025-02-06 15:04","numSpeciesAllTime":76},{"locId":"L16696008","locName":"Ardleigh Reservoir","countryCode":"GB","subnational1Code":"GB-ENG","subnational2Code":"GB-ENG-ESS","lat":51.9151729,"lng":0.9568566,"latestObsDt":"2025-01-29 11:56","numSpeciesAllTime":128},{"locId":"L30426491","locName":"Ardley ERF","countryCode":"GB","subnational1Code":"GB-ENG","subnational2Code":"GB-ENG-OXF","lat":51.92295,"lng":-1.215821,"latestObsDt":"2025-02-12 12:12","numSpeciesAllTime":72},{"locId":"L997990","locName":"Ardmore Point","countryCode":"GB","subnational1Code":"GB-SCT","subnational2Code":"GB-SCT-AGB","lat":55.9717714,"lng":-4.6968699,"latestObsDt":"2025-02-08 11:20","numSpeciesAllTime":121},{"locId":"L5932381","locName":"Ardnave","countryCode":"GB","subnational1Code":"GB-SCT","subnational2Code":"GB-SCT-AGB","lat":55.8723495,"lng":-6.3400555,"latestObsDt":"2025-02-15 09:00","numSpeciesAllTime":109},{"locId":"L7063397","locName":"Ardrishaig Harbour","countryCode":"GB","subnational1Code":"GB-SCT","subnational2Code":"GB-SCT-AGB","lat":56.0122259,"lng":-5.4461932,"latestObsDt":"2025-02-01 12:21","numSpeciesAllTime":44},{"locId":"L2309971","locName":"Argaty Farm","countryCode":"GB","subnational1Code":"GB-SCT","subnational2Code":"GB-SCT-STG","lat":56.2112839,"lng":-4.035877,"latestObsDt":"2025-02-15 16:10","numSpeciesAllTime":72},{"locId":"L4900316","locName":"Arkengarthdale","countryCode":"GB","subnational1Code":"GB-ENG","subnational2Code":"GB-ENG-NYK","lat":54.4388099,"lng":-1.9949484,"latestObsDt":"2025-02-16 08:38","numSpeciesAllTime":89},{"locId":"L9315672","locName":"Arkwright to Staveley Trail (TPT)","countryCode":"GB","subnational1Code":"GB-ENG","subnational2Code":"GB-ENG-DBY","lat":53.2521472,"lng":-1.3608948,"latestObsDt":"2025-01-31 11:57","numSpeciesAllTime":87},{"locId":"L12687782","locName":"Arle Grove GWT NR","countryCode":"GB","subnational1Code":"GB-ENG","subnational2Code":"GB-ENG-GLS","lat":51.8937078,"lng":-2.0089424,"latestObsDt":"2025-02-14 10:00","numSpeciesAllTime":43},{"locId":"L2647912","locName":"Arlington Reservoir LNR","countryCode":"GB","subnational1Code":"GB-ENG","subnational2Code":"GB-ENG-ESX","lat":50.8465975,"lng":0.1765966,"latestObsDt":"2025-02-16 09:14","numSpeciesAllTime":183},{"locId":"L1142321","locName":"Arne RSPB Reserve","countryCode":"GB","subnational1Code":"GB-ENG","subnational2Code":"GB-ENG-DOR","lat":50.6908194,"lng":-2.0385003,"latestObsDt":"2025-02-16 07:58","numSpeciesAllTime":198},{"locId":"L31606546","locName":"Arne RSPB Reserve--Big Wood","countryCode":"GB","subnational1Code":"GB-ENG","subnational2Code":"GB-ENG-DOR","lat":50.6952343,"lng":-2.0322561,"latestObsDt":"2025-02-11 10:47","numSpeciesAllTime":84},{"locId":"L6153039","locName":"Arne RSPB Reserve--Coombe Heath and Seasonal Raptor Trail","countryCode":"GB","subnational1Code":"GB-ENG","subnational2Code":"GB-ENG-DOR","lat":50.6835373,"lng":-2.039144,"latestObsDt":"2025-02-14 11:49","numSpeciesAllTime":142},{"locId":"L26750395","locName":"Arne RSPB Reserve--Hyde's Heath","countryCode":"GB","subnational1Code":"GB-ENG","subnational2Code":"GB-ENG-DOR","lat":50.6874632,"lng":-2.0524981,"latestObsDt":"2025-02-16 09:05","numSpeciesAllTime":108},{"locId":"L22158754","locName":"Arne RSPB Reserve--Middlebere Lookout","countryCode":"GB","subnational1Code":"GB-ENG","subnational2Code":"GB-ENG-DOR","lat":50.683752,"lng":-2.032862,"latestObsDt":"2025-02-09 14:05","numSpeciesAllTime":119},{"locId":"L28897847","locName":"Arne RSPB Reserve--Shipstall Point","countryCode":"GB","subnational1Code":"GB-ENG","subnational2Code":"GB-ENG-DOR","lat":50.6955223,"lng":-2.0253035,"latestObsDt":"2025-02-11 12:49","numSpeciesAllTime":116},{"locId":"L6452754","locName":"Arnfield Reservoir","countryCode":"GB","subnational1Code":"GB-ENG","subnational2Code":"GB-ENG-DBY","lat":53.4726839,"lng":-1.9810045,"latestObsDt":"2025-02-15 08:07","numSpeciesAllTime":151},{"locId":"L10525506","locName":"Arnos Vale Cemetery","countryCode":"GB","subnational1Code":"GB-ENG","subnational2Code":"GB-ENG-BST","lat":51.4406283,"lng":-2.5661817,"latestObsDt":"2025-02-06 09:24","numSpeciesAllTime":56},{"locId":"L10317247","locName":"Arrow Valley Country Park","countryCode":"GB","subnational1Code":"GB-ENG","subnational2Code":"GB-ENG-WOR","lat":52.3048516,"lng":-1.9128094,"latestObsDt":"2025-02-06 11:44","numSpeciesAllTime":83},{"locId":"L3013874","locName":"Arundel Millstream","countryCode":"GB","subnational1Code":"GB-ENG","subnational2Code":"GB-ENG-WSX","lat":50.8601066,"lng":-0.5536589,"latestObsDt":"2025-02-01 16:30","numSpeciesAllTime":96},{"locId":"L11987930","locName":"Ashburnham Place","countryCode":"GB","subnational1Code":"GB-ENG","subnational2Code":"GB-ENG-ESX","lat":50.905454,"lng":0.401195,"latestObsDt":"2025-02-12 08:32","numSpeciesAllTime":109},{"locId":"L16856155","locName":"Ashclyst Forest (NT)","countryCode":"GB","subnational1Code":"GB-ENG","subnational2Code":"GB-ENG-DEV","lat":50.787186,"lng":-3.4207469,"latestObsDt":"2025-02-13 12:13","numSpeciesAllTime":35},{"locId":"L10236279","locName":"Ashdown Forest--Hindleap Warren","countryCode":"GB","subnational1Code":"GB-ENG","subnational2Code":"GB-ENG-ESX","lat":51.0735075,"lng":0.0164255,"latestObsDt":"2025-02-06 09:53","numSpeciesAllTime":71},{"locId":"L8118944","locName":"Ashdown Forest--Long Car Park","countryCode":"GB","subnational1Code":"GB-ENG","subnational2Code":"GB-ENG-ESX","lat":51.06093,"lng":0.03532,"latestObsDt":"2025-02-14 13:03","numSpeciesAllTime":81},{"locId":"L2680577","locName":"Ashdown Forest--Old Lodge LNR","countryCode":"GB","subnational1Code":"GB-ENG","subnational2Code":"GB-ENG-ESX","lat":51.056615,"lng":0.0941241,"latestObsDt":"2025-02-13 10:11","numSpeciesAllTime":103},{"locId":"L6018909","locName":"Ashridge Estate (NT)","countryCode":"GB","subnational1Code":"GB-ENG","subnational2Code":"GB-ENG-HRT","lat":51.8080098,"lng":-0.5933218,"latestObsDt":"2025-02-16 09:51","numSpeciesAllTime":90},{"locId":"L1374160","locName":"Ashton Court","countryCode":"GB","subnational1Code":"GB-ENG","subnational2Code":"GB-ENG-SOM","lat":51.4459567,"lng":-2.6519108,"latestObsDt":"2025-01-24 07:40","numSpeciesAllTime":67},{"locId":"L27804815","locName":"Ashton Court (Bristol part)","countryCode":"GB","subnational1Code":"GB-ENG","subnational2Code":"GB-ENG-BST","lat":51.4439043,"lng":-2.6353163,"latestObsDt":"2025-02-07 06:10","numSpeciesAllTime":45},{"locId":"L14210112","locName":"Ashton Hall","countryCode":"GB","subnational1Code":"GB-ENG","subnational2Code":"GB-ENG-LAN","lat":54.0114601,"lng":-2.8293148,"latestObsDt":"2025-01-18 12:00","numSpeciesAllTime":33},{"locId":"L13760299","locName":"Ashton Marsh and Colliters Brook","countryCode":"GB","subnational1Code":"GB-ENG","subnational2Code":"GB-ENG-BST","lat":51.4339747,"lng":-2.6316984,"latestObsDt":"2025-02-16 09:29","numSpeciesAllTime":62},{"locId":"L8450237","locName":"Ashton Moss","countryCode":"GB","subnational1Code":"GB-ENG","subnational2Code":"GB-ENG-MAN","lat":53.4853895,"lng":-2.1229904,"latestObsDt":"2025-01-29 12:00","numSpeciesAllTime":98},{"locId":"L18686279","locName":"Ashton and Lea Golf Course","countryCode":"GB","subnational1Code":"GB-ENG","subnational2Code":"GB-ENG-LAN","lat":53.7715675,"lng":-2.773314,"latestObsDt":"2025-02-01 14:23","numSpeciesAllTime":50},{"locId":"L17569305","locName":"Ashton-in-Makerfield (Town)","countryCode":"GB","subnational1Code":"GB-ENG","subnational2Code":"GB-ENG-MAN","lat":53.4879562,"lng":-2.6366242,"latestObsDt":"2025-01-28 14:04","numSpeciesAllTime":85},{"locId":"L5678817","locName":"Ashwell-Eyeworth Farmlands Viewpoint","countryCode":"GB","subnational1Code":"GB-ENG","subnational2Code":"GB-ENG-HRT","lat":52.0591535,"lng":-0.1622978,"latestObsDt":"2025-02-01 13:50","numSpeciesAllTime":76},{"locId":"L10475942","locName":"Ashwood's Nursery","countryCode":"GB","subnational1Code":"GB-ENG","subnational2Code":"GB-ENG-STS","lat":52.4890598,"lng":-2.2007592,"latestObsDt":"2025-02-03 08:59","numSpeciesAllTime":53},{"locId":"L2060617","locName":"Askham Bog YWT NR","countryCode":"GB","subnational1Code":"GB-ENG","subnational2Code":"GB-ENG-NYK","lat":53.9259747,"lng":-1.128459,"latestObsDt":"2025-02-13 11:15","numSpeciesAllTime":75},{"locId":"L13985193","locName":"Aspley Heath Sandpit","countryCode":"GB","subnational1Code":"GB-ENG","subnational2Code":"GB-ENG-BDF","lat":52.0043171,"lng":-0.6480812,"latestObsDt":"2025-02-15 08:44","numSpeciesAllTime":43},{"locId":"L8823892","locName":"Astley Moss","countryCode":"GB","subnational1Code":"GB-ENG","subnational2Code":"GB-ENG-MAN","lat":53.4743877,"lng":-2.4479512,"latestObsDt":"2025-02-12 12:31","numSpeciesAllTime":135},{"locId":"L5179346","locName":"Astons Eyot and The Kidneys Nature Park","countryCode":"GB","subnational1Code":"GB-ENG","subnational2Code":"GB-ENG-OXF","lat":51.742297,"lng":-1.2472057,"latestObsDt":"2025-02-15 17:45","numSpeciesAllTime":103},{"locId":"L924161","locName":"Attenborough Nature Centre and NWT NR","countryCode":"GB","subnational1Code":"GB-ENG","subnational2Code":"GB-ENG-NTT","lat":52.9010592,"lng":-1.2336016,"latestObsDt":"2025-02-15 09:23","numSpeciesAllTime":218},{"locId":"L8865021","locName":"Attingham Park (NT)","countryCode":"GB","subnational1Code":"GB-ENG","subnational2Code":"GB-ENG-SHR","lat":52.6874314,"lng":-2.6676727,"latestObsDt":"2025-02-14 11:10","numSpeciesAllTime":97},{"locId":"L5227001","locName":"Audenshaw Reservoirs","countryCode":"GB","subnational1Code":"GB-ENG","subnational2Code":"GB-ENG-MAN","lat":53.4649751,"lng":-2.1307898,"latestObsDt":"2025-02-16 10:30","numSpeciesAllTime":199},{"locId":"L2782072","locName":"Audley End NT","countryCode":"GB","subnational1Code":"GB-ENG","subnational2Code":"GB-ENG-ESS","lat":52.0194133,"lng":0.2229881,"latestObsDt":"2025-02-08 15:28","numSpeciesAllTime":100},{"locId":"L1374163","locName":"Aust--Severn Estuary","countryCode":"GB","subnational1Code":"GB-ENG","subnational2Code":"GB-ENG-GLS","lat":51.5954949,"lng":-2.634058,"latestObsDt":"2025-02-12 11:50","numSpeciesAllTime":149},{"locId":"L14141034","locName":"Aust--Wetland","countryCode":"GB","subnational1Code":"GB-ENG","subnational2Code":"GB-ENG-GLS","lat":51.5923137,"lng":-2.6217297,"latestObsDt":"2025-02-09 16:28","numSpeciesAllTime":95},{"locId":"L12105088","locName":"Avery Hill Park","countryCode":"GB","subnational1Code":"GB-ENG","subnational2Code":"GB-ENG-LND","lat":51.4478663,"lng":0.0754419,"latestObsDt":"2025-01-23 15:47","numSpeciesAllTime":50},{"locId":"L1126505","locName":"Avielochan","countryCode":"GB","subnational1Code":"GB-SCT","subnational2Code":"GB-SCT-HLD","lat":57.2265939,"lng":-3.8121629,"latestObsDt":"2025-02-04 15:03","numSpeciesAllTime":107},{"locId":"L17560752","locName":"Aviemore / An Aghaidh Mhòr","countryCode":"GB","subnational1Code":"GB-SCT","subnational2Code":"GB-SCT-HLD","lat":57.196924,"lng":-3.825474,"latestObsDt":"2025-01-30 11:59","numSpeciesAllTime":148},{"locId":"L2993851","locName":"Avon Gorge","countryCode":"GB","subnational1Code":"GB-ENG","subnational2Code":"GB-ENG-BST","lat":51.4580181,"lng":-2.6304102,"latestObsDt":"2025-01-25 12:37","numSpeciesAllTime":54},{"locId":"L13482833","locName":"Avon Gorge--Peregrine Watch Point","countryCode":"GB","subnational1Code":"GB-ENG","subnational2Code":"GB-ENG-BST","lat":51.4632989,"lng":-2.6295733,"latestObsDt":"2025-01-18 12:45","numSpeciesAllTime":59},{"locId":"L18361567","locName":"Avon Meadows LNR","countryCode":"GB","subnational1Code":"GB-ENG","subnational2Code":"GB-ENG-WOR","lat":52.1166128,"lng":-2.0723093,"latestObsDt":"2025-01-18 16:07","numSpeciesAllTime":89},{"locId":"L28613364","locName":"Avonmouth Park and St Andrew's Churchyard","countryCode":"GB","subnational1Code":"GB-ENG","subnational2Code":"GB-ENG-BST","lat":51.500485,"lng":-2.6977374,"latestObsDt":"2025-01-22 13:20","numSpeciesAllTime":26},{"locId":"L27744270","locName":"Avonview Cemetery and Blackswarth Road Wood","countryCode":"GB","subnational1Code":"GB-ENG","subnational2Code":"GB-ENG-BST","lat":51.4565361,"lng":-2.5471095,"latestObsDt":"2025-02-16 11:24","numSpeciesAllTime":32},{"locId":"L4005900","locName":"Aylestone Meadows LNR","countryCode":"GB","subnational1Code":"GB-ENG","subnational2Code":"GB-ENG-LEC","lat":52.6140972,"lng":-1.1491013,"latestObsDt":"2025-02-13 08:45","numSpeciesAllTime":155},{"locId":"L13362721","locName":"Aylmerton Parish","countryCode":"GB","subnational1Code":"GB-ENG","subnational2Code":"GB-ENG-NFK","lat":52.9114594,"lng":1.241393,"latestObsDt":"2025-01-24 17:09","numSpeciesAllTime":139},{"locId":"L5230505","locName":"Ayot Greenway","countryCode":"GB","subnational1Code":"GB-ENG","subnational2Code":"GB-ENG-HRT","lat":51.8153473,"lng":-0.2298546,"latestObsDt":"2025-02-02 13:17","numSpeciesAllTime":60},{"locId":"L39643239","locName":"A’ Mhaighdean (57.7195,-5.3469)","countryCode":"GB","subnational1Code":"GB-SCT","subnational2Code":"GB-SCT-HLD","lat":57.719459,"lng":-5.346883,"latestObsDt":"2025-01-22 14:38","numSpeciesAllTime":14},{"locId":"L20151628","locName":"Babbs Mill Lake LNR","countryCode":"GB","subnational1Code":"GB-ENG","subnational2Code":"GB-ENG-SAW","lat":52.4870408,"lng":-1.7583115,"latestObsDt":"2025-01-28 13:25","numSpeciesAllTime":62},{"locId":"L17630567","locName":"Babraham--East of A1307","countryCode":"GB","subnational1Code":"GB-ENG","subnational2Code":"GB-ENG-CAM","lat":52.135806,"lng":0.217341,"latestObsDt":"2025-02-01 08:27","numSpeciesAllTime":38},{"locId":"L13851264","locName":"Babraham--Fields North of High Street","countryCode":"GB","subnational1Code":"GB-ENG","subnational2Code":"GB-ENG-CAM","lat":52.131295,"lng":0.2016794,"latestObsDt":"2025-02-15 09:27","numSpeciesAllTime":97},{"locId":"L13949374","locName":"Babraham--Fields South of High Street","countryCode":"GB","subnational1Code":"GB-ENG","subnational2Code":"GB-ENG-CAM","lat":52.1284128,"lng":0.2124388,"latestObsDt":"2025-02-09 10:27","numSpeciesAllTime":87},{"locId":"L4670849","locName":"Backwater Reservoir","countryCode":"GB","subnational1Code":"GB-SCT","subnational2Code":"GB-SCT-ANS","lat":56.7247308,"lng":-3.2182646,"latestObsDt":"2025-02-11 12:30","numSpeciesAllTime":103},{"locId":"L5063078","locName":"Backwell Lake (Bucklands Pond) LNR","countryCode":"GB","subnational1Code":"GB-ENG","subnational2Code":"GB-ENG-SOM","lat":51.4212502,"lng":-2.7533197,"latestObsDt":"2025-02-13 11:42","numSpeciesAllTime":86},{"locId":"L9971490","locName":"Baconsthorpe","countryCode":"GB","subnational1Code":"GB-ENG","subnational2Code":"GB-ENG-NFK","lat":52.8911035,"lng":1.1536717,"latestObsDt":"2025-01-28 11:34","numSpeciesAllTime":144},{"locId":"L11808619","locName":"Bacton Farmland","countryCode":"GB","subnational1Code":"GB-ENG","subnational2Code":"GB-ENG-NFK","lat":52.8509305,"lng":1.4691061,"latestObsDt":"2025-02-08 08:55","numSpeciesAllTime":29},{"locId":"L12105089","locName":"Badgers Mount (Village)","countryCode":"GB","subnational1Code":"GB-ENG","subnational2Code":"GB-ENG-KEN","lat":51.3377866,"lng":0.1464896,"latestObsDt":"2025-01-25 14:36","numSpeciesAllTime":22},{"locId":"L37446527","locName":"Badock's Wood LNR and Henleaze Lake","countryCode":"GB","subnational1Code":"GB-ENG","subnational2Code":"GB-ENG-BST","lat":51.497253,"lng":-2.605726,"latestObsDt":"2025-02-08 11:43","numSpeciesAllTime":33},{"locId":"L13046277","locName":"Baffins Pond NR","countryCode":"GB","subnational1Code":"GB-ENG","subnational2Code":"GB-ENG-HAM","lat":50.8073844,"lng":-1.0565215,"latestObsDt":"2025-02-16 14:01","numSpeciesAllTime":32},{"locId":"L13212192","locName":"Bagley Wood","countryCode":"GB","subnational1Code":"GB-ENG","subnational2Code":"GB-ENG-OXF","lat":51.7193362,"lng":-1.2589228,"latestObsDt":"2025-01-30 13:54","numSpeciesAllTime":63},{"locId":"L9207528","locName":"Bagmoor Lake","countryCode":"GB","subnational1Code":"GB-ENG","subnational2Code":"GB-ENG-LIN","lat":53.651092,"lng":-0.6300948,"latestObsDt":"2025-02-11 14:50","numSpeciesAllTime":160},{"locId":"L7106609","locName":"Bainton Gravel Pits","countryCode":"GB","subnational1Code":"GB-ENG","subnational2Code":"GB-ENG-CAM","lat":52.6471921,"lng":-0.3630984,"latestObsDt":"2025-02-14 17:49","numSpeciesAllTime":104},{"locId":"L8421210","locName":"Baiter Park","countryCode":"GB","subnational1Code":"GB-ENG","subnational2Code":"GB-ENG-DOR","lat":50.7137578,"lng":-1.9698768,"latestObsDt":"2025-01-30 10:50","numSpeciesAllTime":104},{"locId":"L21630653","locName":"Balbirnie Park","countryCode":"GB","subnational1Code":"GB-SCT","subnational2Code":"GB-SCT-FIF","lat":56.205461,"lng":-3.142405,"latestObsDt":"2025-01-26 08:45","numSpeciesAllTime":29},{"locId":"L28232399","locName":"Balbuthie Fields","countryCode":"GB","subnational1Code":"GB-SCT","subnational2Code":"GB-SCT-FIF","lat":56.2054276,"lng":-2.8037607,"latestObsDt":"2025-02-06 11:30","numSpeciesAllTime":14},{"locId":"L941596","locName":"Balgavies Loch","countryCode":"GB","subnational1Code":"GB-SCT","subnational2Code":"GB-SCT-ANS","lat":56.6479223,"lng":-2.76407,"latestObsDt":"2025-02-15 15:52","numSpeciesAllTime":92},{"locId":"L12847610","locName":"Balgay Park","countryCode":"GB","subnational1Code":"GB-SCT","subnational2Code":"GB-SCT-DND","lat":56.4645491,"lng":-3.0114067,"latestObsDt":"2025-02-09 11:30","numSpeciesAllTime":62},{"locId":"L12105095","locName":"Balham (LBC District)","countryCode":"GB","subnational1Code":"GB-ENG","subnational2Code":"GB-ENG-LND","lat":51.4453101,"lng":-0.1555644,"latestObsDt":"2025-02-01 09:12","numSpeciesAllTime":62},{"locId":"L13271313","locName":"Ballard Down","countryCode":"GB","subnational1Code":"GB-ENG","subnational2Code":"GB-ENG-DOR","lat":50.6356333,"lng":-1.9381856,"latestObsDt":"2025-01-24 14:30","numSpeciesAllTime":122},{"locId":"L26162241","locName":"Ballintean / Baile an t' Sithean","countryCode":"GB","subnational1Code":"GB-SCT","subnational2Code":"GB-SCT-HLD","lat":57.0933593,"lng":-3.907603,"latestObsDt":"2025-01-29 19:40","numSpeciesAllTime":30},{"locId":"L4598671","locName":"Balloch Bridge","countryCode":"GB","subnational1Code":"GB-SCT","subnational2Code":"GB-SCT-WDU","lat":56.0040551,"lng":-4.5814008,"latestObsDt":"2025-01-19 14:37","numSpeciesAllTime":72},{"locId":"L33798110","locName":"Balloch Castle and Country Park","countryCode":"GB","subnational1Code":"GB-SCT","subnational2Code":"GB-SCT-WDU","lat":56.0145452,"lng":-4.5832789,"latestObsDt":"2025-01-26 14:56","numSpeciesAllTime":55},{"locId":"L7060456","locName":"Ballochroy","countryCode":"GB","subnational1Code":"GB-SCT","subnational2Code":"GB-SCT-AGB","lat":55.7097905,"lng":-5.6203973,"latestObsDt":"2025-01-20 13:15","numSpeciesAllTime":73},{"locId":"L5143660","locName":"Balls Wood and Hertford Heath NR","countryCode":"GB","subnational1Code":"GB-ENG","subnational2Code":"GB-ENG-HRT","lat":51.7775822,"lng":-0.0500092,"latestObsDt":"2025-01-21 10:32","numSpeciesAllTime":64},{"locId":"L1870914","locName":"Balranald RSPB Reserve","countryCode":"GB","subnational1Code":"GB-SCT","subnational2Code":"GB-SCT-ELS","lat":57.6061373,"lng":-7.5143033,"latestObsDt":"2025-02-07 11:17","numSpeciesAllTime":156},{"locId":"L6076547","locName":"Baltasound","countryCode":"GB","subnational1Code":"GB-SCT","subnational2Code":"GB-SCT-ZET","lat":60.7563167,"lng":-0.862019,"latestObsDt":"2025-02-16 16:45","numSpeciesAllTime":250},{"locId":"L2564446","locName":"Bamburgh","countryCode":"GB","subnational1Code":"GB-ENG","subnational2Code":"GB-ENG-NBL","lat":55.608,"lng":-1.709,"latestObsDt":"2025-02-14 11:58","numSpeciesAllTime":172},{"locId":"L9754800","locName":"Bancroft Gardens","countryCode":"GB","subnational1Code":"GB-ENG","subnational2Code":"GB-ENG-WAR","lat":52.1911365,"lng":-1.703264,"latestObsDt":"2025-02-01 11:33","numSpeciesAllTime":44},{"locId":"L13029878","locName":"Banesley Lane Woodland","countryCode":"GB","subnational1Code":"GB-ENG","subnational2Code":"GB-ENG-GAT","lat":54.9181887,"lng":-1.6235537,"latestObsDt":"2025-02-14 11:00","numSpeciesAllTime":21},{"locId":"L12861134","locName":"Bangor Harbour","countryCode":"GB","subnational1Code":"GB-WLS","subnational2Code":"GB-WLS-GWN","lat":53.2314457,"lng":-4.1141999,"latestObsDt":"2025-02-15 11:34","numSpeciesAllTime":89},{"locId":"L8563178","locName":"Bangor Pier","countryCode":"GB","subnational1Code":"GB-WLS","subnational2Code":"GB-WLS-GWN","lat":53.2392849,"lng":-4.1243443,"latestObsDt":"2025-02-15 10:39","numSpeciesAllTime":120},{"locId":"L9958286","locName":"Bangor University","countryCode":"GB","subnational1Code":"GB-WLS","subnational2Code":"GB-WLS-GWN","lat":53.2295707,"lng":-4.1300011,"latestObsDt":"2025-02-11 08:04","numSpeciesAllTime":86},{"locId":"L25412352","locName":"Bank Hall (Bretherton)","countryCode":"GB","subnational1Code":"GB-ENG","subnational2Code":"GB-ENG-LAN","lat":53.676484,"lng":-2.8088388,"latestObsDt":"2025-02-02 09:09","numSpeciesAllTime":57},{"locId":"L38635168","locName":"Bank Top Country Park","countryCode":"GB","subnational1Code":"GB-ENG","subnational2Code":"GB-ENG-WKF","lat":53.7744916,"lng":-1.8103747,"latestObsDt":"2025-02-16 14:46","numSpeciesAllTime":43},{"locId":"L12669704","locName":"Bankend","countryCode":"GB","subnational1Code":"GB-SCT","subnational2Code":"GB-SCT-DGY","lat":55.0015069,"lng":-3.5226548,"latestObsDt":"2025-02-02 14:41","numSpeciesAllTime":42},{"locId":"L10088798","locName":"Banks Marsh NNR--Old Hollow Farm","countryCode":"GB","subnational1Code":"GB-ENG","subnational2Code":"GB-ENG-LAN","lat":53.6975241,"lng":-2.924273,"latestObsDt":"2025-02-16 10:33","numSpeciesAllTime":118},{"locId":"L35525322","locName":"Banks Pond","countryCode":"GB","subnational1Code":"GB-ENG","subnational2Code":"GB-ENG-GAT","lat":55.0635147,"lng":-1.6826263,"latestObsDt":"2025-02-09 12:20","numSpeciesAllTime":30},{"locId":"L8379616","locName":"Banks and Castlehill Woods","countryCode":"GB","subnational1Code":"GB-ENG","subnational2Code":"GB-ENG-DBY","lat":53.4571644,"lng":-1.9626389,"latestObsDt":"2025-02-16 11:25","numSpeciesAllTime":54},{"locId":"L8240633","locName":"Banky Meadow","countryCode":"GB","subnational1Code":"GB-ENG","subnational2Code":"GB-ENG-MAN","lat":53.4343818,"lng":-2.3585718,"latestObsDt":"2025-02-08 13:52","numSpeciesAllTime":108},{"locId":"L11851005","locName":"Banstead Woods (WT)","countryCode":"GB","subnational1Code":"GB-ENG","subnational2Code":"GB-ENG-SRY","lat":51.3038429,"lng":-0.1816177,"latestObsDt":"2025-02-10 13:41","numSpeciesAllTime":98},{"locId":"L12105105","locName":"Barbican Lakes","countryCode":"GB","subnational1Code":"GB-ENG","subnational2Code":"GB-ENG-LND","lat":51.5189726,"lng":-0.0932901,"latestObsDt":"2025-02-12 11:06","numSpeciesAllTime":25},{"locId":"L12374445","locName":"Barham Park","countryCode":"GB","subnational1Code":"GB-ENG","subnational2Code":"GB-ENG-LND","lat":51.5533802,"lng":-0.3101063,"latestObsDt":"2025-01-20 13:51","numSpeciesAllTime":32},{"locId":"L12105107","locName":"Barking (LBC District)","countryCode":"GB","subnational1Code":"GB-ENG","subnational2Code":"GB-ENG-LND","lat":51.5376872,"lng":0.0837735,"latestObsDt":"2025-01-26 09:11","numSpeciesAllTime":7},{"locId":"L5863415","locName":"Barking Riverside","countryCode":"GB","subnational1Code":"GB-ENG","subnational2Code":"GB-ENG-LND","lat":51.5196259,"lng":0.1220911,"latestObsDt":"2025-02-06 00:00","numSpeciesAllTime":144},{"locId":"L4103014","locName":"Barmston Pond","countryCode":"GB","subnational1Code":"GB-ENG","subnational2Code":"GB-ENG-GAT","lat":54.9081538,"lng":-1.4913619,"latestObsDt":"2025-01-31 11:18","numSpeciesAllTime":126},{"locId":"L12105021","locName":"Barnes Green Pond","countryCode":"GB","subnational1Code":"GB-ENG","subnational2Code":"GB-ENG-LND","lat":51.472981,"lng":-0.2465601,"latestObsDt":"2025-02-01 16:26","numSpeciesAllTime":51},{"locId":"L8827848","locName":"Barnes Meadow BCNWT LNR","countryCode":"GB","subnational1Code":"GB-ENG","subnational2Code":"GB-ENG-NTH","lat":52.2294282,"lng":-0.8727272,"latestObsDt":"2025-02-16 08:48","numSpeciesAllTime":72},{"locId":"L1870944","locName":"Barns Ness","countryCode":"GB","subnational1Code":"GB-SCT","subnational2Code":"GB-SCT-ELN","lat":55.9869636,"lng":-2.4466556,"latestObsDt":"2025-02-02 11:53","numSpeciesAllTime":214},{"locId":"L17985054","locName":"Barnsdale Wood","countryCode":"GB","subnational1Code":"GB-ENG","subnational2Code":"GB-ENG-RUT","lat":52.6689252,"lng":-0.6531164,"latestObsDt":"2025-01-19 14:57","numSpeciesAllTime":81},{"locId":"L3040879","locName":"Barnwell Country Park","countryCode":"GB","subnational1Code":"GB-ENG","subnational2Code":"GB-ENG-NTH","lat":52.4737922,"lng":-0.4763603,"latestObsDt":"2025-02-06 13:35","numSpeciesAllTime":103},{"locId":"L10275901","locName":"Barnwell Country Park--Kingfisher Hide","countryCode":"GB","subnational1Code":"GB-ENG","subnational2Code":"GB-ENG-NTH","lat":52.4747519,"lng":-0.4769312,"latestObsDt":"2025-02-11 12:45","numSpeciesAllTime":46},{"locId":"L23798512","locName":"Barnyards Marsh SWT NR","countryCode":"GB","subnational1Code":"GB-SCT","subnational2Code":"GB-SCT-FIF","lat":56.2100082,"lng":-2.8320091,"latestObsDt":"2025-02-09 12:00","numSpeciesAllTime":57},{"locId":"L1267145","locName":"Barons Haugh RSPB Reserve","countryCode":"GB","subnational1Code":"GB-SCT","subnational2Code":"GB-SCT-SLK","lat":55.7716489,"lng":-3.9875221,"latestObsDt":"2025-02-16 13:10","numSpeciesAllTime":134},{"locId":"L5486020","locName":"Barr Loch","countryCode":"GB","subnational1Code":"GB-SCT","subnational2Code":"GB-SCT-RFW","lat":55.7865256,"lng":-4.6254673,"latestObsDt":"2025-02-15 11:25","numSpeciesAllTime":102},{"locId":"L6259575","locName":"Barrow Common NR","countryCode":"GB","subnational1Code":"GB-ENG","subnational2Code":"GB-ENG-NFK","lat":52.9558211,"lng":0.6631773,"latestObsDt":"2025-02-06 10:56","numSpeciesAllTime":80},{"locId":"L1374161","locName":"Barrow Gurney","countryCode":"GB","subnational1Code":"GB-ENG","subnational2Code":"GB-ENG-SOM","lat":51.4050823,"lng":-2.670579,"latestObsDt":"2025-02-05 11:45","numSpeciesAllTime":115},{"locId":"L16404758","locName":"Barrow Gurney--Barrow Tanks","countryCode":"GB","subnational1Code":"GB-ENG","subnational2Code":"GB-ENG-SOM","lat":51.4063937,"lng":-2.6620072,"latestObsDt":"2025-02-04 11:35","numSpeciesAllTime":103},{"locId":"L22180063","locName":"Barrow-upon-Trent Gravel Pits","countryCode":"GB","subnational1Code":"GB-ENG","subnational2Code":"GB-ENG-DBY","lat":52.8449954,"lng":-1.4872388,"latestObsDt":"2025-02-11 13:20","numSpeciesAllTime":106},{"locId":"L3505693","locName":"Bartley Reservoir","countryCode":"GB","subnational1Code":"GB-ENG","subnational2Code":"GB-ENG-SAW","lat":52.4280709,"lng":-1.9958639,"latestObsDt":"2025-02-15 09:25","numSpeciesAllTime":132},{"locId":"L22005874","locName":"Barton","countryCode":"GB","subnational1Code":"GB-ENG","subnational2Code":"GB-ENG-OXF","lat":51.7711433,"lng":-1.1942697,"latestObsDt":"2025-01-25 10:48","numSpeciesAllTime":27},{"locId":"L4817123","locName":"Barton Broad--Boardwalk","countryCode":"GB","subnational1Code":"GB-ENG","subnational2Code":"GB-ENG-NFK","lat":52.7320466,"lng":1.4932442,"latestObsDt":"2025-02-16 10:11","numSpeciesAllTime":105},{"locId":"L2381700","locName":"Barwick Ford","countryCode":"GB","subnational1Code":"GB-ENG","subnational2Code":"GB-ENG-HRT","lat":51.8510494,"lng":0.010643,"latestObsDt":"2025-01-27 14:06","numSpeciesAllTime":90},{"locId":"L25304623","locName":"Basildon Park (NT)","countryCode":"GB","subnational1Code":"GB-ENG","subnational2Code":"GB-ENG-BRC","lat":51.5012913,"lng":-1.1228723,"latestObsDt":"2025-02-08 13:00","numSpeciesAllTime":46},{"locId":"L7188700","locName":"Baston Fen LWT NR","countryCode":"GB","subnational1Code":"GB-ENG","subnational2Code":"GB-ENG-LIN","lat":52.74357,"lng":-0.306846,"latestObsDt":"2025-02-01 10:30","numSpeciesAllTime":155},{"locId":"L3624643","locName":"Baston Gravel Pits","countryCode":"GB","subnational1Code":"GB-ENG","subnational2Code":"GB-ENG-LIN","lat":52.7153101,"lng":-0.3171873,"latestObsDt":"2025-02-11 11:58","numSpeciesAllTime":203},{"locId":"L13771485","locName":"Bateswood Country Park and LNR","countryCode":"GB","subnational1Code":"GB-ENG","subnational2Code":"GB-ENG-STS","lat":53.0349456,"lng":-2.3065239,"latestObsDt":"2025-02-16 09:15","numSpeciesAllTime":111},{"locId":"L4674069","locName":"Batford Springs LNR","countryCode":"GB","subnational1Code":"GB-ENG","subnational2Code":"GB-ENG-HRT","lat":51.8221385,"lng":-0.3380656,"latestObsDt":"2025-02-11 12:30","numSpeciesAllTime":92},{"locId":"L14406252","locName":"Batford to Mackerye End Footpath","countryCode":"GB","subnational1Code":"GB-ENG","subnational2Code":"GB-ENG-HRT","lat":51.8247412,"lng":-0.3259924,"latestObsDt":"2025-02-01 15:30","numSpeciesAllTime":59},{"locId":"L1800098","locName":"Battersea Park","countryCode":"GB","subnational1Code":"GB-ENG","subnational2Code":"GB-ENG-LND","lat":51.4802877,"lng":-0.1552555,"latestObsDt":"2025-02-16 10:35","numSpeciesAllTime":104},{"locId":"L12107038","locName":"Battersea Power Station","countryCode":"GB","subnational1Code":"GB-ENG","subnational2Code":"GB-ENG-LND","lat":51.4818171,"lng":-0.1441605,"latestObsDt":"2025-02-04 07:34","numSpeciesAllTime":86},{"locId":"L11848035","locName":"Battery Point","countryCode":"GB","subnational1Code":"GB-ENG","subnational2Code":"GB-ENG-SOM","lat":51.4946139,"lng":-2.7735758,"latestObsDt":"2025-02-15 13:00","numSpeciesAllTime":75},{"locId":"L3031399","locName":"Battery Rocks","countryCode":"GB","subnational1Code":"GB-ENG","subnational2Code":"GB-ENG-CON","lat":50.1153181,"lng":-5.5310449,"latestObsDt":"2025-02-15 09:51","numSpeciesAllTime":109},{"locId":"L11561086","locName":"Battle Sewage Works","countryCode":"GB","subnational1Code":"GB-ENG","subnational2Code":"GB-ENG-ESX","lat":50.9188632,"lng":0.5002648,"latestObsDt":"2025-01-19 11:01","numSpeciesAllTime":44},{"locId":"L27376296","locName":"Battyeford Island","countryCode":"GB","subnational1Code":"GB-ENG","subnational2Code":"GB-ENG-WKF","lat":53.6802501,"lng":-1.7156071,"latestObsDt":"2025-02-12 10:08","numSpeciesAllTime":70},{"locId":"L7183154","locName":"Baulking Pit","countryCode":"GB","subnational1Code":"GB-ENG","subnational2Code":"GB-ENG-OXF","lat":51.6163626,"lng":-1.5370131,"latestObsDt":"2025-01-23 13:15","numSpeciesAllTime":116},{"locId":"L4894523","locName":"Bavelaw Marsh","countryCode":"GB","subnational1Code":"GB-SCT","subnational2Code":"GB-SCT-EDH","lat":55.8566239,"lng":-3.3407664,"latestObsDt":"2025-02-12 11:16","numSpeciesAllTime":120},{"locId":"L4023937","locName":"Bawburgh Lakes (Colney Gravel Pits)","countryCode":"GB","subnational1Code":"GB-ENG","subnational2Code":"GB-ENG-NFK","lat":52.6337922,"lng":1.2062645,"latestObsDt":"2025-02-16 09:40","numSpeciesAllTime":174},{"locId":"L36786857","locName":"Bay of Quendale","countryCode":"GB","subnational1Code":"GB-SCT","subnational2Code":"GB-SCT-ZET","lat":59.8951819,"lng":-1.3295565,"latestObsDt":"2025-02-03 09:46","numSpeciesAllTime":32},{"locId":"L4216594","locName":"Bayhurst Wood Country Park","countryCode":"GB","subnational1Code":"GB-ENG","subnational2Code":"GB-ENG-LND","lat":51.5899228,"lng":-0.4588509,"latestObsDt":"2025-02-15 11:43","numSpeciesAllTime":65},{"locId":"L12105134","locName":"Bayswater (LBC District)","countryCode":"GB","subnational1Code":"GB-ENG","subnational2Code":"GB-ENG-LND","lat":51.5122691,"lng":-0.187342,"latestObsDt":"2025-01-21 12:43","numSpeciesAllTime":36},{"locId":"L5984633","locName":"Beach Road NR","countryCode":"GB","subnational1Code":"GB-NIR","subnational2Code":"GB-NIR-ANT","lat":54.7474893,"lng":-5.7109809,"latestObsDt":"2025-02-02 09:11","numSpeciesAllTime":35},{"locId":"L13161254","locName":"Beachy Head Ringing Station","countryCode":"GB","subnational1Code":"GB-ENG","subnational2Code":"GB-ENG-ESX","lat":50.7457975,"lng":0.2616119,"latestObsDt":"2025-01-24 12:13","numSpeciesAllTime":97},{"locId":"L2993847","locName":"Beachy Head--Birling Gap","countryCode":"GB","subnational1Code":"GB-ENG","subnational2Code":"GB-ENG-ESX","lat":50.7399316,"lng":0.2038908,"latestObsDt":"2025-02-09 11:06","numSpeciesAllTime":161},{"locId":"L2485315","locName":"Beacon Hill Country Park","countryCode":"GB","subnational1Code":"GB-ENG","subnational2Code":"GB-ENG-LEC","lat":52.727482,"lng":-1.2390733,"latestObsDt":"2025-02-02 11:53","numSpeciesAllTime":77},{"locId":"L20043389","locName":"Beaconsfield (Town)","countryCode":"GB","subnational1Code":"GB-ENG","subnational2Code":"GB-ENG-BKM","lat":51.6111814,"lng":-0.6463485,"latestObsDt":"2025-02-11 09:30","numSpeciesAllTime":25},{"locId":"L7712776","locName":"Beaconsfield Service Station","countryCode":"GB","subnational1Code":"GB-ENG","subnational2Code":"GB-ENG-BKM","lat":51.5873364,"lng":-0.6271434,"latestObsDt":"2025-02-11 09:09","numSpeciesAllTime":54},{"locId":"L12105138","locName":"Beam Valley Country Park and LNR--North","countryCode":"GB","subnational1Code":"GB-ENG","subnational2Code":"GB-ENG-LND","lat":51.5440432,"lng":0.1792633,"latestObsDt":"2025-02-03 08:28","numSpeciesAllTime":76},{"locId":"L3522795","locName":"Beam Valley Country Park and LNR--South","countryCode":"GB","subnational1Code":"GB-ENG","subnational2Code":"GB-ENG-LND","lat":51.5326826,"lng":0.1660931,"latestObsDt":"2025-02-03 07:49","numSpeciesAllTime":87},{"locId":"L8383034","locName":"Beaumaris Seafront","countryCode":"GB","subnational1Code":"GB-WLS","subnational2Code":"GB-WLS-AGY","lat":53.2637637,"lng":-4.087169,"latestObsDt":"2025-02-08 17:00","numSpeciesAllTime":108},{"locId":"L4296810","locName":"Beccles Common","countryCode":"GB","subnational1Code":"GB-ENG","subnational2Code":"GB-ENG-SFK","lat":52.4601019,"lng":1.5819561,"latestObsDt":"2025-01-19 12:25","numSpeciesAllTime":58},{"locId":"L12784543","locName":"Beck Plantation / Willow Holt","countryCode":"GB","subnational1Code":"GB-ENG","subnational2Code":"GB-ENG-BNS","lat":53.446436,"lng":-1.0124409,"latestObsDt":"2025-02-06 14:05","numSpeciesAllTime":36},{"locId":"L7264565","locName":"Beckenham Place Park","countryCode":"GB","subnational1Code":"GB-ENG","subnational2Code":"GB-ENG-LND","lat":51.4191054,"lng":-0.0150204,"latestObsDt":"2025-02-11 11:49","numSpeciesAllTime":74},{"locId":"L23031393","locName":"Beckfoot Shore","countryCode":"GB","subnational1Code":"GB-ENG","subnational2Code":"GB-ENG-CMA","lat":54.8321501,"lng":-3.4166758,"latestObsDt":"2025-02-15 14:55","numSpeciesAllTime":43},{"locId":"L28680407","locName":"Beckford Nature Reserve","countryCode":"GB","subnational1Code":"GB-ENG","subnational2Code":"GB-ENG-WOR","lat":52.0231474,"lng":-2.0351695,"latestObsDt":"2025-02-10 16:45","numSpeciesAllTime":39},{"locId":"L3578101","locName":"Beckton Creekside and Sewage Works","countryCode":"GB","subnational1Code":"GB-ENG","subnational2Code":"GB-ENG-LND","lat":51.5171472,"lng":0.0942367,"latestObsDt":"2025-02-06 06:57","numSpeciesAllTime":143},{"locId":"L933099","locName":"Beddington Farmlands","countryCode":"GB","subnational1Code":"GB-ENG","subnational2Code":"GB-ENG-LND","lat":51.3805849,"lng":-0.1479596,"latestObsDt":"2025-02-16 11:14","numSpeciesAllTime":257},{"locId":"L11546794","locName":"Beddington Park","countryCode":"GB","subnational1Code":"GB-ENG","subnational2Code":"GB-ENG-LND","lat":51.3724317,"lng":-0.1435977,"latestObsDt":"2025-02-13 19:05","numSpeciesAllTime":106},{"locId":"L5924473","locName":"Beddmanarch Bay","countryCode":"GB","subnational1Code":"GB-WLS","subnational2Code":"GB-WLS-AGY","lat":53.2972594,"lng":-4.5705803,"latestObsDt":"2025-02-01 10:20","numSpeciesAllTime":95},{"locId":"L27100335","locName":"Bedelands Nature Reserve","countryCode":"GB","subnational1Code":"GB-ENG","subnational2Code":"GB-ENG-WSX","lat":50.9685085,"lng":-0.125699,"latestObsDt":"2025-01-20 14:56","numSpeciesAllTime":35},{"locId":"L6193944","locName":"Bedfont Lakes LNR","countryCode":"GB","subnational1Code":"GB-ENG","subnational2Code":"GB-ENG-SRY","lat":51.4419086,"lng":-0.4476053,"latestObsDt":"2025-02-16 12:07","numSpeciesAllTime":100},{"locId":"L1368580","locName":"Bedford River Valley Park--Priory Country Park","countryCode":"GB","subnational1Code":"GB-ENG","subnational2Code":"GB-ENG-BDF","lat":52.1305461,"lng":-0.4306004,"latestObsDt":"2025-01-30 14:41","numSpeciesAllTime":138},{"locId":"L13356551","locName":"Bedford Sewage Works including Meadow Lane Ditch","countryCode":"GB","subnational1Code":"GB-ENG","subnational2Code":"GB-ENG-BDF","lat":52.1335772,"lng":-0.4176168,"latestObsDt":"2025-01-30 13:52","numSpeciesAllTime":86},{"locId":"L29946254","locName":"Bedmond Lane Raptor Viewing","countryCode":"GB","subnational1Code":"GB-ENG","subnational2Code":"GB-ENG-HRT","lat":51.7458779,"lng":-0.3669173,"latestObsDt":"2025-02-04 12:17","numSpeciesAllTime":48},{"locId":"L9860472","locName":"Bedruthan Steps","countryCode":"GB","subnational1Code":"GB-ENG","subnational2Code":"GB-ENG-CON","lat":50.484668,"lng":-5.031939,"latestObsDt":"2025-02-03 11:16","numSpeciesAllTime":60},{"locId":"L7115958","locName":"Beeby’s Brick Pits","countryCode":"GB","subnational1Code":"GB-ENG","subnational2Code":"GB-ENG-CAM","lat":52.5270413,"lng":-0.2494329,"latestObsDt":"2025-02-15 10:15","numSpeciesAllTime":80},{"locId":"L12105155","locName":"Beech Farm Gravel Pits","countryCode":"GB","subnational1Code":"GB-ENG","subnational2Code":"GB-ENG-HRT","lat":51.7657904,"lng":-0.2726956,"latestObsDt":"2025-02-09 11:41","numSpeciesAllTime":86},{"locId":"L6112314","locName":"Beech Grove (Restricted access)","countryCode":"GB","subnational1Code":"GB-ENG","subnational2Code":"GB-ENG-KEN","lat":51.2294225,"lng":1.2423563,"latestObsDt":"2025-02-09 08:16","numSpeciesAllTime":109},{"locId":"L8302320","locName":"Beechengrove Wood","countryCode":"GB","subnational1Code":"GB-ENG","subnational2Code":"GB-ENG-HRT","lat":51.66272,"lng":-0.491302,"latestObsDt":"2025-01-24 10:00","numSpeciesAllTime":24},{"locId":"L27888399","locName":"Beechwood Park","countryCode":"GB","subnational1Code":"GB-WLS","subnational2Code":"GB-WLS-NWP","lat":51.5918229,"lng":-2.9648013,"latestObsDt":"2025-02-11 10:01","numSpeciesAllTime":37},{"locId":"L27028092","locName":"Beeding Brooks","countryCode":"GB","subnational1Code":"GB-ENG","subnational2Code":"GB-ENG-WSX","lat":50.8912881,"lng":-0.3044957,"latestObsDt":"2025-01-30 09:55","numSpeciesAllTime":90},{"locId":"L12789981","locName":"Beehive Flash","countryCode":"GB","subnational1Code":"GB-ENG","subnational2Code":"GB-ENG-NBL","lat":55.0562699,"lng":-1.4880792,"latestObsDt":"2025-01-25 11:50","numSpeciesAllTime":58},{"locId":"L1796166","locName":"Beeley Moor","countryCode":"GB","subnational1Code":"GB-ENG","subnational2Code":"GB-ENG-DBY","lat":53.1997567,"lng":-1.574035,"latestObsDt":"2025-02-13 13:55","numSpeciesAllTime":147},{"locId":"L6623728","locName":"Beeley Triangle","countryCode":"GB","subnational1Code":"GB-ENG","subnational2Code":"GB-ENG-DBY","lat":53.204542,"lng":-1.559281,"latestObsDt":"2025-01-29 13:04","numSpeciesAllTime":101},{"locId":"L6870383","locName":"Beer Cove and Head","countryCode":"GB","subnational1Code":"GB-ENG","subnational2Code":"GB-ENG-DEV","lat":50.6924823,"lng":-3.0956125,"latestObsDt":"2025-01-18 10:45","numSpeciesAllTime":99},{"locId":"L3303152","locName":"Beesands Ley","countryCode":"GB","subnational1Code":"GB-ENG","subnational2Code":"GB-ENG-DEV","lat":50.2572115,"lng":-3.6570053,"latestObsDt":"2025-02-06 12:30","numSpeciesAllTime":127},{"locId":"L5529347","locName":"Beeston Bump","countryCode":"GB","subnational1Code":"GB-ENG","subnational2Code":"GB-ENG-NFK","lat":52.94326,"lng":1.2251,"latestObsDt":"2025-02-05 14:39","numSpeciesAllTime":133},{"locId":"L1763312","locName":"Belair Park","countryCode":"GB","subnational1Code":"GB-ENG","subnational2Code":"GB-ENG-LND","lat":51.4437908,"lng":-0.0911522,"latestObsDt":"2025-02-14 14:00","numSpeciesAllTime":51},{"locId":"L9170750","locName":"Belfairs Woodland Centre EWT NR","countryCode":"GB","subnational1Code":"GB-ENG","subnational2Code":"GB-ENG-ESS","lat":51.556505,"lng":0.6410176,"latestObsDt":"2025-02-02 13:58","numSpeciesAllTime":43},{"locId":"L2347097","locName":"Belfast Botanical Gardens","countryCode":"GB","subnational1Code":"GB-NIR","subnational2Code":"GB-NIR-BFS","lat":54.5819715,"lng":-5.9317052,"latestObsDt":"2025-02-06 11:07","numSpeciesAllTime":60},{"locId":"L7060382","locName":"Belfast Ferry Terminals","countryCode":"GB","subnational1Code":"GB-NIR","subnational2Code":"GB-NIR-BFS","lat":54.6321204,"lng":-5.8835649,"latestObsDt":"2025-01-25 15:18","numSpeciesAllTime":72},{"locId":"L11019940","locName":"Belford Moor","countryCode":"GB","subnational1Code":"GB-ENG","subnational2Code":"GB-ENG-NBL","lat":55.5888287,"lng":-1.8937066,"latestObsDt":"2025-01-23 10:10","numSpeciesAllTime":39},{"locId":"L12761092","locName":"Belford Rd Park (Scottish National Gallery of Modern Art)","countryCode":"GB","subnational1Code":"GB-SCT","subnational2Code":"GB-SCT-EDH","lat":55.9513051,"lng":-3.2259295,"latestObsDt":"2025-01-28 12:31","numSpeciesAllTime":52},{"locId":"L3280908","locName":"Belhaven Bay","countryCode":"GB","subnational1Code":"GB-SCT","subnational2Code":"GB-SCT-ELN","lat":56.0023246,"lng":-2.5489655,"latestObsDt":"2025-02-06 13:19","numSpeciesAllTime":149},{"locId":"L12105162","locName":"Belhus Park","countryCode":"GB","subnational1Code":"GB-ENG","subnational2Code":"GB-ENG-ESS","lat":51.5082292,"lng":0.2654729,"latestObsDt":"2025-01-31 11:07","numSpeciesAllTime":16},{"locId":"L11829476","locName":"Belhus Woods Country Park","countryCode":"GB","subnational1Code":"GB-ENG","subnational2Code":"GB-ENG-LND","lat":51.5190961,"lng":0.2578256,"latestObsDt":"2025-02-05 13:25","numSpeciesAllTime":113},{"locId":"L12794038","locName":"Belle Isle Park","countryCode":"GB","subnational1Code":"GB-ENG","subnational2Code":"GB-ENG-DEV","lat":50.711809,"lng":-3.521262,"latestObsDt":"2025-02-15 15:12","numSpeciesAllTime":43},{"locId":"L20734238","locName":"Belsay Hall","countryCode":"GB","subnational1Code":"GB-ENG","subnational2Code":"GB-ENG-NBL","lat":55.0996861,"lng":-1.869988,"latestObsDt":"2025-02-08 16:28","numSpeciesAllTime":47},{"locId":"L11232258","locName":"Belstead Brook Park","countryCode":"GB","subnational1Code":"GB-ENG","subnational2Code":"GB-ENG-SFK","lat":52.030182,"lng":1.1297865,"latestObsDt":"2025-02-06 09:25","numSpeciesAllTime":140},{"locId":"L1282854","locName":"Belton Park NT","countryCode":"GB","subnational1Code":"GB-ENG","subnational2Code":"GB-ENG-LIN","lat":52.9376452,"lng":-0.6111145,"latestObsDt":"2025-02-08 12:36","numSpeciesAllTime":99},{"locId":"L1274309","locName":"Belvide Reservoir NR","countryCode":"GB","subnational1Code":"GB-ENG","subnational2Code":"GB-ENG-STS","lat":52.6874133,"lng":-2.2036171,"latestObsDt":"2025-02-10 00:00","numSpeciesAllTime":215},{"locId":"L10191532","locName":"Belvidere Meadows LNR","countryCode":"GB","subnational1Code":"GB-ENG","subnational2Code":"GB-ENG-DEV","lat":50.741276,"lng":-3.533947,"latestObsDt":"2025-01-19 11:00","numSpeciesAllTime":36},{"locId":"L18886892","locName":"Belvoir Park Forest","countryCode":"GB","subnational1Code":"GB-NIR","subnational2Code":"GB-NIR-BFS","lat":54.5564856,"lng":-5.9289709,"latestObsDt":"2025-02-08 11:42","numSpeciesAllTime":53},{"locId":"L10907484","locName":"Bembridge Foreland","countryCode":"GB","subnational1Code":"GB-ENG","subnational2Code":"GB-ENG-IOW","lat":50.6794737,"lng":-1.0806246,"latestObsDt":"2025-02-14 07:45","numSpeciesAllTime":101},{"locId":"L4668227","locName":"Bempton (Village)","countryCode":"GB","subnational1Code":"GB-ENG","subnational2Code":"GB-ENG-ERY","lat":54.1306804,"lng":-0.1786566,"latestObsDt":"2025-02-11 00:00","numSpeciesAllTime":134},{"locId":"L939089","locName":"Bempton Cliffs RSPB Reserve","countryCode":"GB","subnational1Code":"GB-ENG","subnational2Code":"GB-ENG-ERY","lat":54.1477072,"lng":-0.1674128,"latestObsDt":"2025-02-16 11:59","numSpeciesAllTime":245},{"locId":"L7919586","locName":"Benacre NNR--Benacre Broad","countryCode":"GB","subnational1Code":"GB-ENG","subnational2Code":"GB-ENG-SFK","lat":52.3840073,"lng":1.7158567,"latestObsDt":"2025-02-15 13:52","numSpeciesAllTime":220},{"locId":"L7886730","locName":"Beningbrough Hall (NT)","countryCode":"GB","subnational1Code":"GB-ENG","subnational2Code":"GB-ENG-NYK","lat":54.0188422,"lng":-1.2136187,"latestObsDt":"2025-01-18 10:55","numSpeciesAllTime":88},{"locId":"L5909778","locName":"Bennerley Marsh","countryCode":"GB","subnational1Code":"GB-ENG","subnational2Code":"GB-ENG-NTT","lat":52.9875881,"lng":-1.2952924,"latestObsDt":"2025-02-15 13:31","numSpeciesAllTime":125},{"locId":"L5380195","locName":"Bennetston Hall Pond","countryCode":"GB","subnational1Code":"GB-ENG","subnational2Code":"GB-ENG-DBY","lat":53.3142283,"lng":-1.8768784,"latestObsDt":"2025-02-15 15:45","numSpeciesAllTime":44},{"locId":"L12760626","locName":"Bennetts End","countryCode":"GB","subnational1Code":"GB-ENG","subnational2Code":"GB-ENG-HRT","lat":51.7376814,"lng":-0.4521295,"latestObsDt":"2025-02-03 11:30","numSpeciesAllTime":19},{"locId":"L18991814","locName":"Bent House Lane","countryCode":"GB","subnational1Code":"GB-ENG","subnational2Code":"GB-ENG-DUR","lat":54.7711609,"lng":-1.5433054,"latestObsDt":"2025-01-25 10:57","numSpeciesAllTime":79},{"locId":"L5257024","locName":"Bent Lane Floods","countryCode":"GB","subnational1Code":"GB-ENG","subnational2Code":"GB-ENG-STS","lat":52.9572746,"lng":-2.2831348,"latestObsDt":"2025-01-28 16:24","numSpeciesAllTime":80},{"locId":"L9040603","locName":"Benthall Hall (NT)","countryCode":"GB","subnational1Code":"GB-ENG","subnational2Code":"GB-ENG-SHR","lat":52.6217716,"lng":-2.5062567,"latestObsDt":"2025-01-18 15:54","numSpeciesAllTime":35},{"locId":"L12106856","locName":"Bentley (Village)","countryCode":"GB","subnational1Code":"GB-ENG","subnational2Code":"GB-ENG-ESS","lat":51.6482021,"lng":0.2664449,"latestObsDt":"2025-02-09 13:26","numSpeciesAllTime":52},{"locId":"L32624017","locName":"Bergh Apton Conservation Trust NR","countryCode":"GB","subnational1Code":"GB-ENG","subnational2Code":"GB-ENG-NFK","lat":52.5466293,"lng":1.4068244,"latestObsDt":"2025-02-06 11:00","numSpeciesAllTime":36},{"locId":"L14202342","locName":"Berkeley Square Gardens","countryCode":"GB","subnational1Code":"GB-ENG","subnational2Code":"GB-ENG-LND","lat":51.509318,"lng":-0.145758,"latestObsDt":"2025-02-13 13:25","numSpeciesAllTime":23},{"locId":"L15856899","locName":"Berkhamsted (Town)","countryCode":"GB","subnational1Code":"GB-ENG","subnational2Code":"GB-ENG-HRT","lat":51.7631144,"lng":-0.5766947,"latestObsDt":"2025-02-14 08:11","numSpeciesAllTime":56},{"locId":"L16367146","locName":"Berkhamsted--Common and Farmland North of Town","countryCode":"GB","subnational1Code":"GB-ENG","subnational2Code":"GB-ENG-HRT","lat":51.7715552,"lng":-0.5607449,"latestObsDt":"2025-02-01 12:16","numSpeciesAllTime":65},{"locId":"L3235235","locName":"Berney Marshes RSPB Reserve","countryCode":"GB","subnational1Code":"GB-ENG","subnational2Code":"GB-ENG-NFK","lat":52.5853205,"lng":1.6358685,"latestObsDt":"2025-02-12 12:08","numSpeciesAllTime":150},{"locId":"L37090340","locName":"Bernisdale","countryCode":"GB","subnational1Code":"GB-SCT","subnational2Code":"GB-SCT-HLD","lat":57.4785874,"lng":-6.3377049,"latestObsDt":"2025-02-14 15:05","numSpeciesAllTime":44},{"locId":"L30822209","locName":"Bernwood Forest","countryCode":"GB","subnational1Code":"GB-ENG","subnational2Code":"GB-ENG-BKM","lat":51.7948786,"lng":-1.1072159,"latestObsDt":"2025-01-25 11:04","numSpeciesAllTime":32},{"locId":"L17505665","locName":"Berrow LNR","countryCode":"GB","subnational1Code":"GB-ENG","subnational2Code":"GB-ENG-SOM","lat":51.2763382,"lng":-3.015387,"latestObsDt":"2025-02-01 14:38","numSpeciesAllTime":132},{"locId":"L2764040","locName":"Berry Head NNR","countryCode":"GB","subnational1Code":"GB-ENG","subnational2Code":"GB-ENG-DEV","lat":50.3981725,"lng":-3.4905839,"latestObsDt":"2025-02-15 14:58","numSpeciesAllTime":161},{"locId":"L13822027","locName":"Berryhill Fields LNR","countryCode":"GB","subnational1Code":"GB-ENG","subnational2Code":"GB-ENG-STS","lat":53.0079206,"lng":-2.1414179,"latestObsDt":"2025-01-29 10:29","numSpeciesAllTime":114},{"locId":"L12106864","locName":"Berrylands (LBC District)","countryCode":"GB","subnational1Code":"GB-ENG","subnational2Code":"GB-ENG-LND","lat":51.3925995,"lng":-0.2865388,"latestObsDt":"2025-02-04 06:56","numSpeciesAllTime":51},{"locId":"L6262986","locName":"Berwick Law","countryCode":"GB","subnational1Code":"GB-SCT","subnational2Code":"GB-SCT-ELN","lat":56.0480748,"lng":-2.7156401,"latestObsDt":"2025-02-02 10:32","numSpeciesAllTime":73},{"locId":"L16956173","locName":"Berwick-upon-Tweed","countryCode":"GB","subnational1Code":"GB-ENG","subnational2Code":"GB-ENG-NBL","lat":55.771569,"lng":-1.9986979,"latestObsDt":"2025-02-16 14:46","numSpeciesAllTime":152},{"locId":"L4293807","locName":"Bessborough Gardens","countryCode":"GB","subnational1Code":"GB-ENG","subnational2Code":"GB-ENG-LND","lat":51.4887387,"lng":-0.1306021,"latestObsDt":"2025-01-25 15:46","numSpeciesAllTime":16},{"locId":"L1143318","locName":"Besthorpe NWT NR","countryCode":"GB","subnational1Code":"GB-ENG","subnational2Code":"GB-ENG-NTT","lat":53.1712911,"lng":-0.7760811,"latestObsDt":"2025-02-16 14:50","numSpeciesAllTime":137},{"locId":"L1135560","locName":"Besthorpe NWT NR--South","countryCode":"GB","subnational1Code":"GB-ENG","subnational2Code":"GB-ENG-NTT","lat":53.1652471,"lng":-0.7803297,"latestObsDt":"2025-02-15 14:34","numSpeciesAllTime":136},{"locId":"L12106872","locName":"Bethnal Green NR","countryCode":"GB","subnational1Code":"GB-ENG","subnational2Code":"GB-ENG-LND","lat":51.5296166,"lng":-0.0581845,"latestObsDt":"2025-02-10 16:00","numSpeciesAllTime":24},{"locId":"L21523908","locName":"Beveridge Park","countryCode":"GB","subnational1Code":"GB-SCT","subnational2Code":"GB-SCT-FIF","lat":56.105101,"lng":-3.175128,"latestObsDt":"2025-02-02 11:25","numSpeciesAllTime":5},{"locId":"L11656026","locName":"Beverley Beck","countryCode":"GB","subnational1Code":"GB-ENG","subnational2Code":"GB-ENG-ERY","lat":53.8390566,"lng":-0.404061,"latestObsDt":"2025-02-02 14:59","numSpeciesAllTime":60},{"locId":"L4872398","locName":"Beverley Westwood","countryCode":"GB","subnational1Code":"GB-ENG","subnational2Code":"GB-ENG-ERY","lat":53.8407538,"lng":-0.458014,"latestObsDt":"2025-01-29 07:57","numSpeciesAllTime":98},{"locId":"L11372415","locName":"Bewdley (Town)","countryCode":"GB","subnational1Code":"GB-ENG","subnational2Code":"GB-ENG-WOR","lat":52.3765474,"lng":-2.3138666,"latestObsDt":"2025-02-09 09:10","numSpeciesAllTime":80},{"locId":"L9438826","locName":"Bewdley--Jubilee Gardens","countryCode":"GB","subnational1Code":"GB-ENG","subnational2Code":"GB-ENG-WOR","lat":52.3745493,"lng":-2.3132604,"latestObsDt":"2025-02-11 11:20","numSpeciesAllTime":62},{"locId":"L1344853","locName":"Bewl Water","countryCode":"GB","subnational1Code":"GB-ENG","subnational2Code":"GB-ENG-ESX","lat":51.0710652,"lng":0.3951505,"latestObsDt":"2025-02-13 13:15","numSpeciesAllTime":92},{"locId":"L19354531","locName":"Bickershaw Country Park","countryCode":"GB","subnational1Code":"GB-ENG","subnational2Code":"GB-ENG-MAN","lat":53.501955,"lng":-2.548843,"latestObsDt":"2025-02-16 16:19","numSpeciesAllTime":99},{"locId":"L7600198","locName":"Bicton Park Botanical Gardens","countryCode":"GB","subnational1Code":"GB-ENG","subnational2Code":"GB-ENG-DEV","lat":50.6665,"lng":-3.3138,"latestObsDt":"2025-02-01 14:00","numSpeciesAllTime":64},{"locId":"L8080129","locName":"Bidston Moss NR","countryCode":"GB","subnational1Code":"GB-ENG","subnational2Code":"GB-ENG-KWL","lat":53.412706,"lng":-3.068491,"latestObsDt":"2025-02-01 11:54","numSpeciesAllTime":93},{"locId":"L2418096","locName":"Big Waters NR","countryCode":"GB","subnational1Code":"GB-ENG","subnational2Code":"GB-ENG-GAT","lat":55.0547267,"lng":-1.6453743,"latestObsDt":"2025-02-15 11:50","numSpeciesAllTime":154},{"locId":"L30858950","locName":"Biggar (Village)","countryCode":"GB","subnational1Code":"GB-ENG","subnational2Code":"GB-ENG-CMA","lat":54.0846448,"lng":-3.237834,"latestObsDt":"2025-02-08 15:35","numSpeciesAllTime":1},{"locId":"L12106887","locName":"Biggin Hill (LBC District)","countryCode":"GB","subnational1Code":"GB-ENG","subnational2Code":"GB-ENG-LND","lat":51.3113605,"lng":0.0337049,"latestObsDt":"2025-02-15 11:30","numSpeciesAllTime":31},{"locId":"L5560278","locName":"Biggleswade Common","countryCode":"GB","subnational1Code":"GB-ENG","subnational2Code":"GB-ENG-BDF","lat":52.1023193,"lng":-0.2633114,"latestObsDt":"2025-01-26 10:18","numSpeciesAllTime":102},{"locId":"L22207339","locName":"Billy Neill MBE Country Park","countryCode":"GB","subnational1Code":"GB-NIR","subnational2Code":"GB-NIR-BFS","lat":54.5771963,"lng":-5.7859822,"latestObsDt":"2025-02-01 12:09","numSpeciesAllTime":66},{"locId":"L6156003","locName":"Binghams Pond","countryCode":"GB","subnational1Code":"GB-SCT","subnational2Code":"GB-SCT-GLG","lat":55.8852767,"lng":-4.3132925,"latestObsDt":"2025-01-24 09:45","numSpeciesAllTime":50},{"locId":"L11808720","locName":"Bircham Newton Farmland","countryCode":"GB","subnational1Code":"GB-ENG","subnational2Code":"GB-ENG-NFK","lat":52.8750457,"lng":0.6234748,"latestObsDt":"2025-02-05 10:15","numSpeciesAllTime":56},{"locId":"L3012482","locName":"Birdham Pool","countryCode":"GB","subnational1Code":"GB-ENG","subnational2Code":"GB-ENG-WSX","lat":50.8031684,"lng":-0.8313453,"latestObsDt":"2025-02-09 09:25","numSpeciesAllTime":89},{"locId":"L8236497","locName":"Birdland Park and Gardens","countryCode":"GB","subnational1Code":"GB-ENG","subnational2Code":"GB-ENG-GLS","lat":51.881657,"lng":-1.7541862,"latestObsDt":"2025-02-12 16:41","numSpeciesAllTime":61},{"locId":"L18702311","locName":"Birkdale Moss","countryCode":"GB","subnational1Code":"GB-ENG","subnational2Code":"GB-ENG-LAN","lat":53.6219512,"lng":-2.9813787,"latestObsDt":"2025-02-15 15:46","numSpeciesAllTime":32},{"locId":"L8715110","locName":"Birkenhead Park","countryCode":"GB","subnational1Code":"GB-ENG","subnational2Code":"GB-ENG-KWL","lat":53.3944161,"lng":-3.0436499,"latestObsDt":"2025-02-16 12:45","numSpeciesAllTime":33},{"locId":"L3859444","locName":"Birmingham Airport","countryCode":"GB","subnational1Code":"GB-ENG","subnational2Code":"GB-ENG-SAW","lat":52.45211,"lng":-1.74428,"latestObsDt":"2025-01-23 08:06","numSpeciesAllTime":35},{"locId":"L5585912","locName":"Birnie & Gaddon Lochs LNR","countryCode":"GB","subnational1Code":"GB-SCT","subnational2Code":"GB-SCT-FIF","lat":56.3017102,"lng":-3.1523573,"latestObsDt":"2025-02-16 09:27","numSpeciesAllTime":100},{"locId":"L8585606","locName":"Birtley Green (including Bonhurst Farm) and Grafham","countryCode":"GB","subnational1Code":"GB-ENG","subnational2Code":"GB-ENG-SRY","lat":51.1710847,"lng":-0.5453231,"latestObsDt":"2025-02-09 11:28","numSpeciesAllTime":95},{"locId":"L19754375","locName":"Birtley Sewage Treatment Works","countryCode":"GB","subnational1Code":"GB-ENG","subnational2Code":"GB-ENG-GAT","lat":54.9051146,"lng":-1.6000861,"latestObsDt":"2025-01-23 15:37","numSpeciesAllTime":86},{"locId":"L39443822","locName":"Bishops Knoll and Old Sneed Park LNR","countryCode":"GB","subnational1Code":"GB-ENG","subnational2Code":"GB-ENG-BST","lat":51.4734717,"lng":-2.6453945,"latestObsDt":"2025-02-12 13:23","numSpeciesAllTime":28},{"locId":"L14527995","locName":"Bishopstone Fairy Glen Coastal Park","countryCode":"GB","subnational1Code":"GB-ENG","subnational2Code":"GB-ENG-KEN","lat":51.3729859,"lng":1.1682415,"latestObsDt":"2025-02-08 14:41","numSpeciesAllTime":93},{"locId":"L8474856","locName":"Bittell Reservoirs","countryCode":"GB","subnational1Code":"GB-ENG","subnational2Code":"GB-ENG-WOR","lat":52.3703413,"lng":-1.9743495,"latestObsDt":"2025-02-15 10:15","numSpeciesAllTime":175},{"locId":"L38515002","locName":"Black Ash Park and Liswerry Pill","countryCode":"GB","subnational1Code":"GB-WLS","subnational2Code":"GB-WLS-NWP","lat":51.5798247,"lng":-2.9652432,"latestObsDt":"2025-01-20 12:58","numSpeciesAllTime":20},{"locId":"L31021134","locName":"Black Dam Ponds","countryCode":"GB","subnational1Code":"GB-ENG","subnational2Code":"GB-ENG-HAM","lat":51.2621177,"lng":-1.0678753,"latestObsDt":"2025-02-01 16:00","numSpeciesAllTime":40},{"locId":"L3064179","locName":"Black Devon Wetlands RSPB Reserve","countryCode":"GB","subnational1Code":"GB-SCT","subnational2Code":"GB-SCT-CLK","lat":56.1015529,"lng":-3.782022,"latestObsDt":"2025-02-07 10:20","numSpeciesAllTime":131},{"locId":"L1363812","locName":"Black Down","countryCode":"GB","subnational1Code":"GB-ENG","subnational2Code":"GB-ENG-SOM","lat":51.3133925,"lng":-2.7463675,"latestObsDt":"2025-02-04 10:30","numSpeciesAllTime":78},{"locId":"L11605048","locName":"Black Down (NT)","countryCode":"GB","subnational1Code":"GB-ENG","subnational2Code":"GB-ENG-WSX","lat":51.0630294,"lng":-0.6902507,"latestObsDt":"2025-01-25 12:31","numSpeciesAllTime":86},{"locId":"L6545856","locName":"Black Fan Valley","countryCode":"GB","subnational1Code":"GB-ENG","subnational2Code":"GB-ENG-HRT","lat":51.8085484,"lng":-0.1830018,"latestObsDt":"2025-02-06 10:40","numSpeciesAllTime":53},{"locId":"L3495059","locName":"Black Firs & Cranberry Bog SWT NR","countryCode":"GB","subnational1Code":"GB-ENG","subnational2Code":"GB-ENG-CHS","lat":53.0490236,"lng":-2.3769951,"latestObsDt":"2025-02-14 15:48","numSpeciesAllTime":43},{"locId":"L10400185","locName":"Black Grouse Watchpoint","countryCode":"GB","subnational1Code":"GB-WLS","subnational2Code":"GB-WLS-WRX","lat":53.0486676,"lng":-3.1197735,"latestObsDt":"2025-01-25 07:45","numSpeciesAllTime":82},{"locId":"L2723218","locName":"Black Hole Marsh NR","countryCode":"GB","subnational1Code":"GB-ENG","subnational2Code":"GB-ENG-DEV","lat":50.7193695,"lng":-3.0609348,"latestObsDt":"2025-01-30 09:31","numSpeciesAllTime":142},{"locId":"L4242240","locName":"Black Park Country Park and LNR","countryCode":"GB","subnational1Code":"GB-ENG","subnational2Code":"GB-ENG-BKM","lat":51.5446465,"lng":-0.5428791,"latestObsDt":"2025-02-08 11:19","numSpeciesAllTime":91},{"locId":"L24540567","locName":"Black Rabbit pub - Arundel","countryCode":"GB","subnational1Code":"GB-ENG","subnational2Code":"GB-ENG-WSX","lat":50.8667531,"lng":-0.5438662,"latestObsDt":"2025-01-21 16:44","numSpeciesAllTime":95},{"locId":"L11241658","locName":"Black Rock","countryCode":"GB","subnational1Code":"GB-WLS","subnational2Code":"GB-WLS-MON","lat":51.5894696,"lng":-2.7046855,"latestObsDt":"2025-01-19 15:20","numSpeciesAllTime":56},{"locId":"L18124874","locName":"Black Rock Sands / Traeth y Graig Ddu","countryCode":"GB","subnational1Code":"GB-WLS","subnational2Code":"GB-WLS-GWN","lat":52.9074424,"lng":-4.1772032,"latestObsDt":"2025-01-30 13:30","numSpeciesAllTime":120},{"locId":"L2564617","locName":"Black Spout Wood","countryCode":"GB","subnational1Code":"GB-SCT","subnational2Code":"GB-SCT-PKN","lat":56.7004957,"lng":-3.7142587,"latestObsDt":"2025-02-01 15:15","numSpeciesAllTime":64},{"locId":"L12032887","locName":"Blackcap NT NR","countryCode":"GB","subnational1Code":"GB-ENG","subnational2Code":"GB-ENG-ESX","lat":50.8974293,"lng":-0.046398,"latestObsDt":"2025-02-16 12:18","numSpeciesAllTime":60},{"locId":"L12106853","locName":"Blackfriars Bridge","countryCode":"GB","subnational1Code":"GB-ENG","subnational2Code":"GB-ENG-LND","lat":51.509571,"lng":-0.1043079,"latestObsDt":"2025-02-10 12:37","numSpeciesAllTime":35},{"locId":"L8461810","locName":"Blackheath Common and SSSI","countryCode":"GB","subnational1Code":"GB-ENG","subnational2Code":"GB-ENG-SRY","lat":51.205625,"lng":-0.5174917,"latestObsDt":"2025-01-30 00:00","numSpeciesAllTime":84},{"locId":"L12106912","locName":"Blackheath Vanbrugh Park (LBC District)","countryCode":"GB","subnational1Code":"GB-ENG","subnational2Code":"GB-ENG-LND","lat":51.4769126,"lng":0.0104284,"latestObsDt":"2025-02-16 11:43","numSpeciesAllTime":26},{"locId":"L30091299","locName":"Blackheath and Tidpit Downs","countryCode":"GB","subnational1Code":"GB-ENG","subnational2Code":"GB-ENG-HAM","lat":50.9581689,"lng":-1.9007643,"latestObsDt":"2025-01-25 09:32","numSpeciesAllTime":37},{"locId":"L2925987","locName":"Blackmoor NR","countryCode":"GB","subnational1Code":"GB-ENG","subnational2Code":"GB-ENG-SOM","lat":51.3015595,"lng":-2.7068532,"latestObsDt":"2025-01-21 14:40","numSpeciesAllTime":64},{"locId":"L16631065","locName":"Blackmore Down","countryCode":"GB","subnational1Code":"GB-ENG","subnational2Code":"GB-ENG-WIL","lat":51.2656793,"lng":-1.620027,"latestObsDt":"2025-02-02 12:30","numSpeciesAllTime":54},{"locId":"L1289708","locName":"Blackpill","countryCode":"GB","subnational1Code":"GB-WLS","subnational2Code":"GB-WLS-SWA","lat":51.5957704,"lng":-3.9951589,"latestObsDt":"2025-02-09 07:45","numSpeciesAllTime":93},{"locId":"L10835637","locName":"Blackpool North Shore","countryCode":"GB","subnational1Code":"GB-ENG","subnational2Code":"GB-ENG-LAN","lat":53.8379002,"lng":-3.0557658,"latestObsDt":"2025-02-13 07:50","numSpeciesAllTime":110},{"locId":"L12203745","locName":"Blackstone & Dropping Well Farm NR (Limited Access)","countryCode":"GB","subnational1Code":"GB-ENG","subnational2Code":"GB-ENG-WOR","lat":52.3670011,"lng":-2.2896146,"latestObsDt":"2025-01-21 09:16","numSpeciesAllTime":79},{"locId":"L12203654","locName":"Blackstone Riverside Park","countryCode":"GB","subnational1Code":"GB-ENG","subnational2Code":"GB-ENG-WOR","lat":52.3653341,"lng":-2.3081129,"latestObsDt":"2025-02-07 10:15","numSpeciesAllTime":54},{"locId":"L28601887","locName":"Blacksyke Lake and Eden footpath","countryCode":"GB","subnational1Code":"GB-ENG","subnational2Code":"GB-ENG-CMA","lat":54.5333616,"lng":-2.4177465,"latestObsDt":"2025-01-30 09:02","numSpeciesAllTime":73},{"locId":"L1212969","locName":"Blacktoft Sands RSPB Reserve","countryCode":"GB","subnational1Code":"GB-ENG","subnational2Code":"GB-ENG-ERY","lat":53.6993582,"lng":-0.7273507,"latestObsDt":"2025-02-14 11:15","numSpeciesAllTime":214},{"locId":"L2975911","locName":"Blackwater Estuary--North","countryCode":"GB","subnational1Code":"GB-ENG","subnational2Code":"GB-ENG-ESS","lat":51.7382639,"lng":0.78372,"latestObsDt":"2025-02-06 08:00","numSpeciesAllTime":128},{"locId":"L11548186","locName":"Blackwater Estuary--Tollesbury Wick","countryCode":"GB","subnational1Code":"GB-ENG","subnational2Code":"GB-ENG-ESS","lat":51.7589108,"lng":0.8575228,"latestObsDt":"2025-02-12 09:34","numSpeciesAllTime":138},{"locId":"L5721680","locName":"Blaen y Glyn","countryCode":"GB","subnational1Code":"GB-WLS","subnational2Code":"GB-WLS-POW","lat":51.846176,"lng":-3.365977,"latestObsDt":"2025-02-02 11:12","numSpeciesAllTime":35},{"locId":"L1292178","locName":"Blagdon Lake","countryCode":"GB","subnational1Code":"GB-ENG","subnational2Code":"GB-ENG-SOM","lat":51.3345443,"lng":-2.7046795,"latestObsDt":"2025-02-13 00:00","numSpeciesAllTime":186},{"locId":"L28319106","locName":"Blair Atholl","countryCode":"GB","subnational1Code":"GB-SCT","subnational2Code":"GB-SCT-PKN","lat":56.7657446,"lng":-3.842398,"latestObsDt":"2025-02-15 08:30","numSpeciesAllTime":53},{"locId":"L5028056","locName":"Blaise Castle Estate","countryCode":"GB","subnational1Code":"GB-ENG","subnational2Code":"GB-ENG-BST","lat":51.502533,"lng":-2.6371908,"latestObsDt":"2025-02-05 13:26","numSpeciesAllTime":67},{"locId":"L17940650","locName":"Blake's Wood (NT)","countryCode":"GB","subnational1Code":"GB-ENG","subnational2Code":"GB-ENG-ESS","lat":51.7305827,"lng":0.5668834,"latestObsDt":"2025-02-14 13:25","numSpeciesAllTime":62},{"locId":"L6944654","locName":"Blakeney Freshes NT","countryCode":"GB","subnational1Code":"GB-ENG","subnational2Code":"GB-ENG-NFK","lat":52.9599966,"lng":1.0292816,"latestObsDt":"2025-02-06 14:57","numSpeciesAllTime":190},{"locId":"L3235057","locName":"Blakeney Harbour","countryCode":"GB","subnational1Code":"GB-ENG","subnational2Code":"GB-ENG-NFK","lat":52.9571025,"lng":1.017673,"latestObsDt":"2025-02-16 09:31","numSpeciesAllTime":191},{"locId":"L1018727","locName":"Blashford Lakes HIWWT NR","countryCode":"GB","subnational1Code":"GB-ENG","subnational2Code":"GB-ENG-HAM","lat":50.871184,"lng":-1.7842913,"latestObsDt":"2025-02-16 12:10","numSpeciesAllTime":189},{"locId":"L10488455","locName":"Blashford Lakes HIWWT NR--Ibsley Water","countryCode":"GB","subnational1Code":"GB-ENG","subnational2Code":"GB-ENG-HAM","lat":50.877845,"lng":-1.7878746,"latestObsDt":"2025-02-15 10:32","numSpeciesAllTime":146},{"locId":"L22917195","locName":"Blashford Lakes HIWWT NR--Woodland and Visitor Centre","countryCode":"GB","subnational1Code":"GB-ENG","subnational2Code":"GB-ENG-HAM","lat":50.8709121,"lng":-1.7862492,"latestObsDt":"2025-02-15 10:04","numSpeciesAllTime":119},{"locId":"L2777552","locName":"Blashford Lakes NR--Ivy Lake","countryCode":"GB","subnational1Code":"GB-ENG","subnational2Code":"GB-ENG-HAM","lat":50.8678365,"lng":-1.7827034,"latestObsDt":"2025-02-15 11:45","numSpeciesAllTime":127},{"locId":"L3859583","locName":"Blatherwycke Lake","countryCode":"GB","subnational1Code":"GB-ENG","subnational2Code":"GB-ENG-NTH","lat":52.554928,"lng":-0.5668473,"latestObsDt":"2025-02-12 12:05","numSpeciesAllTime":88},{"locId":"L11812599","locName":"Blaxton Meadow","countryCode":"GB","subnational1Code":"GB-ENG","subnational2Code":"GB-ENG-DEV","lat":50.3842731,"lng":-4.0849681,"latestObsDt":"2025-02-09 15:21","numSpeciesAllTime":100},{"locId":"L16082960","locName":"Blaydon Burn NR","countryCode":"GB","subnational1Code":"GB-ENG","subnational2Code":"GB-ENG-GAT","lat":54.9578698,"lng":-1.735979,"latestObsDt":"2025-02-05 09:34","numSpeciesAllTime":22},{"locId":"L2546187","locName":"Blean Woods RSPB Reserve and NNR","countryCode":"GB","subnational1Code":"GB-ENG","subnational2Code":"GB-ENG-KEN","lat":51.3033131,"lng":1.0306004,"latestObsDt":"2025-02-11 07:57","numSpeciesAllTime":97},{"locId":"L1066707","locName":"Blenheim Park","countryCode":"GB","subnational1Code":"GB-ENG","subnational2Code":"GB-ENG-OXF","lat":51.8477621,"lng":-1.372776,"latestObsDt":"2025-01-18 12:00","numSpeciesAllTime":129},{"locId":"L2076609","locName":"Blickling Estate (NT)","countryCode":"GB","subnational1Code":"GB-ENG","subnational2Code":"GB-ENG-NFK","lat":52.8085208,"lng":1.234417,"latestObsDt":"2025-01-30 10:00","numSpeciesAllTime":122},{"locId":"L1550668","locName":"Blithfield Reservoir","countryCode":"GB","subnational1Code":"GB-ENG","subnational2Code":"GB-ENG-STS","lat":52.8145272,"lng":-1.9233888,"latestObsDt":"2025-02-11 12:16","numSpeciesAllTime":209},{"locId":"L28613138","locName":"Blofield Trak","countryCode":"GB","subnational1Code":"GB-ENG","subnational2Code":"GB-ENG-SFK","lat":51.9728883,"lng":1.3178997,"latestObsDt":"2025-02-09 10:25","numSpeciesAllTime":74},{"locId":"L2675333","locName":"Blue House Farm EWT NR","countryCode":"GB","subnational1Code":"GB-ENG","subnational2Code":"GB-ENG-ESS","lat":51.6409964,"lng":0.6827107,"latestObsDt":"2025-02-15 09:20","numSpeciesAllTime":153},{"locId":"L5107415","locName":"Blue Lagoon Fishing Lake","countryCode":"GB","subnational1Code":"GB-ENG","subnational2Code":"GB-ENG-BDF","lat":51.9930781,"lng":-0.2578697,"latestObsDt":"2025-01-26 11:01","numSpeciesAllTime":68},{"locId":"L6854689","locName":"Bluebell Wood","countryCode":"GB","subnational1Code":"GB-ENG","subnational2Code":"GB-ENG-LND","lat":51.60586,"lng":-0.135807,"latestObsDt":"2025-02-09 09:00","numSpeciesAllTime":41},{"locId":"L26284309","locName":"Bluewater Lake","countryCode":"GB","subnational1Code":"GB-ENG","subnational2Code":"GB-ENG-KEN","lat":51.4411405,"lng":0.2642244,"latestObsDt":"2025-02-03 15:04","numSpeciesAllTime":29},{"locId":"L989344","locName":"Blyth Estuary (Suffolk)","countryCode":"GB","subnational1Code":"GB-ENG","subnational2Code":"GB-ENG-SFK","lat":52.3250847,"lng":1.6023731,"latestObsDt":"2025-02-16 14:45","numSpeciesAllTime":171},{"locId":"L3836889","locName":"Bo'ness Harbour","countryCode":"GB","subnational1Code":"GB-SCT","subnational2Code":"GB-SCT-FAL","lat":56.0194763,"lng":-3.6073512,"latestObsDt":"2025-02-08 13:40","numSpeciesAllTime":78},{"locId":"L22705539","locName":"Boarhills / Buddo Ness and Surrounds","countryCode":"GB","subnational1Code":"GB-SCT","subnational2Code":"GB-SCT-FIF","lat":56.3214059,"lng":-2.6909768,"latestObsDt":"2025-02-02 13:00","numSpeciesAllTime":143},{"locId":"L15078666","locName":"Boat Woods","countryCode":"GB","subnational1Code":"GB-SCT","subnational2Code":"GB-SCT-HLD","lat":57.2413378,"lng":-3.774205,"latestObsDt":"2025-02-14 13:40","numSpeciesAllTime":76},{"locId":"L9253095","locName":"Boat of Garten--Bridge","countryCode":"GB","subnational1Code":"GB-SCT","subnational2Code":"GB-SCT-HLD","lat":57.2503281,"lng":-3.7474605,"latestObsDt":"2025-02-12 09:36","numSpeciesAllTime":62},{"locId":"L5767779","locName":"Boat of Garten--Milton Loch","countryCode":"GB","subnational1Code":"GB-SCT","subnational2Code":"GB-SCT-HLD","lat":57.2524365,"lng":-3.7518697,"latestObsDt":"2025-02-06 14:45","numSpeciesAllTime":96},{"locId":"L5760505","locName":"Bockhill","countryCode":"GB","subnational1Code":"GB-ENG","subnational2Code":"GB-ENG-KEN","lat":51.1572604,"lng":1.3943195,"latestObsDt":"2025-02-15 07:07","numSpeciesAllTime":222},{"locId":"L5735149","locName":"Bodenham Lake","countryCode":"GB","subnational1Code":"GB-ENG","subnational2Code":"GB-ENG-HEF","lat":52.156521,"lng":-2.6988333,"latestObsDt":"2025-02-09 14:15","numSpeciesAllTime":97},{"locId":"L3582628","locName":"Bodiam Castle (NT)","countryCode":"GB","subnational1Code":"GB-ENG","subnational2Code":"GB-ENG-ESX","lat":51.0016438,"lng":0.5431688,"latestObsDt":"2025-01-18 13:19","numSpeciesAllTime":76},{"locId":"L11285161","locName":"Bodnant Garden (NT)","countryCode":"GB","subnational1Code":"GB-WLS","subnational2Code":"GB-WLS-CWY","lat":53.2346008,"lng":-3.799012,"latestObsDt":"2025-02-15 13:43","numSpeciesAllTime":68},{"locId":"L33380851","locName":"Boghead Pool and Farmland","countryCode":"GB","subnational1Code":"GB-SCT","subnational2Code":"GB-SCT-ANS","lat":56.6083518,"lng":-2.5236536,"latestObsDt":"2025-02-01 10:31","numSpeciesAllTime":46},{"locId":"L6872981","locName":"Bognor Regis Esplanade","countryCode":"GB","subnational1Code":"GB-ENG","subnational2Code":"GB-ENG-WSX","lat":50.7808551,"lng":-0.6780943,"latestObsDt":"2025-02-11 07:56","numSpeciesAllTime":78},{"locId":"L2103122","locName":"Bogside Flats SSSI","countryCode":"GB","subnational1Code":"GB-SCT","subnational2Code":"GB-SCT-NAY","lat":55.6170658,"lng":-4.6921263,"latestObsDt":"2025-02-09 13:36","numSpeciesAllTime":146},{"locId":"L8195498","locName":"Bolam Lake Country Park","countryCode":"GB","subnational1Code":"GB-ENG","subnational2Code":"GB-ENG-NBL","lat":55.13282,"lng":-1.8719673,"latestObsDt":"2025-02-03 11:30","numSpeciesAllTime":95},{"locId":"L22102873","locName":"Bold Colliery and Well","countryCode":"GB","subnational1Code":"GB-ENG","subnational2Code":"GB-ENG-KWL","lat":53.4366466,"lng":-2.683873,"latestObsDt":"2025-02-13 12:56","numSpeciesAllTime":65},{"locId":"L3178907","locName":"Bolder Mere","countryCode":"GB","subnational1Code":"GB-ENG","subnational2Code":"GB-ENG-SRY","lat":51.3144762,"lng":-0.4568982,"latestObsDt":"2025-02-08 16:12","numSpeciesAllTime":76},{"locId":"L4100754","locName":"Boldon Flats","countryCode":"GB","subnational1Code":"GB-ENG","subnational2Code":"GB-ENG-GAT","lat":54.9468695,"lng":-1.4115179,"latestObsDt":"2025-02-12 15:00","numSpeciesAllTime":144},{"locId":"L37583838","locName":"Bolehill Flash","countryCode":"GB","subnational1Code":"GB-ENG","subnational2Code":"GB-ENG-BNS","lat":53.3935524,"lng":-1.3506663,"latestObsDt":"2025-01-18 14:45","numSpeciesAllTime":30},{"locId":"L31099854","locName":"Bolton Fell Moss NNR","countryCode":"GB","subnational1Code":"GB-ENG","subnational2Code":"GB-ENG-CMA","lat":55.0211525,"lng":-2.8052473,"latestObsDt":"2025-01-29 10:23","numSpeciesAllTime":72},{"locId":"L31316463","locName":"Bolton Hall Estate","countryCode":"GB","subnational1Code":"GB-ENG","subnational2Code":"GB-ENG-NYK","lat":54.3033852,"lng":-1.8856144,"latestObsDt":"2025-02-16 12:00","numSpeciesAllTime":28},{"locId":"L13251062","locName":"Bolton-on-Swale Lake YWT NR","countryCode":"GB","subnational1Code":"GB-ENG","subnational2Code":"GB-ENG-NYK","lat":54.3832066,"lng":-1.6185093,"latestObsDt":"2025-02-04 09:57","numSpeciesAllTime":97},{"locId":"L12106928","locName":"Bonnetts Wood","countryCode":"GB","subnational1Code":"GB-ENG","subnational2Code":"GB-ENG-LND","lat":51.5374629,"lng":0.239488,"latestObsDt":"2025-01-20 10:15","numSpeciesAllTime":73},{"locId":"L17551787","locName":"Bonnyrigg Sawmill SuDS Ponds","countryCode":"GB","subnational1Code":"GB-SCT","subnational2Code":"GB-SCT-MLN","lat":55.867608,"lng":-3.096583,"latestObsDt":"2025-02-07 16:42","numSpeciesAllTime":48},{"locId":"L26026013","locName":"Boothby Wildlands","countryCode":"GB","subnational1Code":"GB-ENG","subnational2Code":"GB-ENG-LIN","lat":52.859745,"lng":-0.5521692,"latestObsDt":"2025-01-31 09:30","numSpeciesAllTime":59},{"locId":"L9995623","locName":"Borough Woods LNR","countryCode":"GB","subnational1Code":"GB-ENG","subnational2Code":"GB-ENG-NBL","lat":55.1638552,"lng":-1.7199588,"latestObsDt":"2025-02-16 13:17","numSpeciesAllTime":64},{"locId":"L20936839","locName":"Borrans Park","countryCode":"GB","subnational1Code":"GB-ENG","subnational2Code":"GB-ENG-CMA","lat":54.4216136,"lng":-2.9660961,"latestObsDt":"2025-02-06 08:27","numSpeciesAllTime":144},{"locId":"L22088417","locName":"Borrowpit Lake","countryCode":"GB","subnational1Code":"GB-ENG","subnational2Code":"GB-ENG-STS","lat":52.6267061,"lng":-1.6932644,"latestObsDt":"2025-02-13 08:02","numSpeciesAllTime":59},{"locId":"L15800637","locName":"Borth-y-Gest Shore","countryCode":"GB","subnational1Code":"GB-WLS","subnational2Code":"GB-WLS-GWN","lat":52.916175,"lng":-4.13621,"latestObsDt":"2025-02-08 12:17","numSpeciesAllTime":76},{"locId":"L3184991","locName":"Boscathnoe Reservoir","countryCode":"GB","subnational1Code":"GB-ENG","subnational2Code":"GB-ENG-CON","lat":50.1255509,"lng":-5.5653048,"latestObsDt":"2025-02-05 15:22","numSpeciesAllTime":71},{"locId":"L11802709","locName":"Bosham Channel","countryCode":"GB","subnational1Code":"GB-ENG","subnational2Code":"GB-ENG-WSX","lat":50.8283394,"lng":-0.8629076,"latestObsDt":"2025-01-22 11:17","numSpeciesAllTime":83},{"locId":"L11789005","locName":"Boshaw Whams Reservoir","countryCode":"GB","subnational1Code":"GB-ENG","subnational2Code":"GB-ENG-WKF","lat":53.5477393,"lng":-1.7736549,"latestObsDt":"2025-02-09 13:40","numSpeciesAllTime":32},{"locId":"L1290735","locName":"Bosherston Ponds","countryCode":"GB","subnational1Code":"GB-WLS","subnational2Code":"GB-WLS-PEM","lat":51.6141971,"lng":-4.927793,"latestObsDt":"2025-01-19 08:55","numSpeciesAllTime":132},{"locId":"L14433731","locName":"Bosigran","countryCode":"GB","subnational1Code":"GB-ENG","subnational2Code":"GB-ENG-CON","lat":50.1774733,"lng":-5.6099081,"latestObsDt":"2025-02-08 12:00","numSpeciesAllTime":48},{"locId":"L8865468","locName":"Bosley Reservoir","countryCode":"GB","subnational1Code":"GB-ENG","subnational2Code":"GB-ENG-CHS","lat":53.1905195,"lng":-2.1186839,"latestObsDt":"2025-01-19 10:58","numSpeciesAllTime":93},{"locId":"L14730386","locName":"Botallack Mine","countryCode":"GB","subnational1Code":"GB-ENG","subnational2Code":"GB-ENG-CON","lat":50.1400554,"lng":-5.6890762,"latestObsDt":"2025-01-31 16:04","numSpeciesAllTime":72},{"locId":"L8100298","locName":"Botany Bay (Broadstairs)","countryCode":"GB","subnational1Code":"GB-ENG","subnational2Code":"GB-ENG-KEN","lat":51.3886863,"lng":1.434092,"latestObsDt":"2025-02-10 12:19","numSpeciesAllTime":83},{"locId":"L10142193","locName":"Bothal","countryCode":"GB","subnational1Code":"GB-ENG","subnational2Code":"GB-ENG-NBL","lat":55.173635,"lng":-1.625307,"latestObsDt":"2025-01-30 15:20","numSpeciesAllTime":84},{"locId":"L2209070","locName":"Bothal Pond","countryCode":"GB","subnational1Code":"GB-ENG","subnational2Code":"GB-ENG-NBL","lat":55.1795281,"lng":-1.6179353,"latestObsDt":"2025-02-16 15:12","numSpeciesAllTime":152},{"locId":"L36591743","locName":"Bottoms Reservoir","countryCode":"GB","subnational1Code":"GB-ENG","subnational2Code":"GB-ENG-CHS","lat":53.2410234,"lng":-2.0817381,"latestObsDt":"2025-02-14 14:20","numSpeciesAllTime":38},{"locId":"L1367071","locName":"Bough Beech Reservoir","countryCode":"GB","subnational1Code":"GB-ENG","subnational2Code":"GB-ENG-KEN","lat":51.2163553,"lng":0.1381996,"latestObsDt":"2025-02-01 09:35","numSpeciesAllTime":210},